~Version Information
#-------------------
VERS.        2.0: CWLS log ASCII Standart - VERSION 2.0
WRAP.        YES: Multiple lines per depth step
~Well Information Block
#----------------------
#MNEM.UNIT  VALUE: DESCRIPTION
#----.---- -------: -------------
STRT.м                  34.4: Начальная глубина
STOP.м                  3192: Конечная глубина
STEP.м                   0.1: Шаг квантования
NULL.              -32768.00: Код отсутствия
COMP.            LUKOIL-KOMI: Название организации
WELL.                    207: Наименование скважины
FLD .       YAREIUSKOE FIELD: Наименование площади
LOC .                    NAO: Расположение скважины
CTRY.                 RUSSIA: Название страны
SRVC.                   PNGG: Наим.орг-ции, проводившей каротаж
DATE.             01.02.2020: Дата регистрации каротажных данных
UWI .                      0: Уникальный идентификатор скважины
~Parameter Information
#---------------------
#MNEM.UNIT         VALUE: DESCRIPTION
#----.----       -------: ---------------
~Curve Information Block
#-----------------------
#MNEM  .UNIT          : CURVE DESCRIPTION
#------.----          : -----------------
DEPT     .m             : Колонка глубины
Hk       .m             : Положение крюка
Wk       .t             : Вес инструмента на крюке
Wd       .t             : Нагрузка на долото
Pin      .atm           : Давление на входе
Qin      .c3/s          : Расход промывочной жидкости на входе
Qout      .c3/s         : Расход промывочной жидкости на выходе
Vmex     .m/h           : Скорость бурения
DMK      .min/m         : Время бурения 1 метра
Np       .ob/min        : Частота оборотов ротора
Nd       .ob/min        : Частота оборотов долота
Mp       .OE            : Крутящий момент на роторе
Dd       .mm            : Диаметр долота
Yin      .g/c3          : Плотность раствора на входе в скважину
Yout     .g/c3          : Плотность раствора на выходе из скважины
Xn1      .h/min         : Ходы насоса 1
Xn2      .h/min         : Ходы насоса 2
Tin      .°С            : Температура раствора на входе
Tout     .°С            : Температура раствора на выходе
Vemk     .m3            : Общий объем раствора в емкостях
C1       .%             : Содержание метана
C2       .%             : Содержание этана
C3       .%             : Содержание пропана
C4       .%             : Содержание бутана
C5       .%             : Содержание пентана
Сuv      .%             : Сумма компонентов углеводородов
Кgazkontr.UE            : Коэффмциент газовой контр.
Lit      .OE            : Литологический код породы
Yn       .g/c3          : Эквивалентная плотность раствора
Cuvp     .c3/d3         : Приведенная сумма компонентов углеводородов в растворе
Wh       .UE            : Газовые коэффициенты
Bh       .UE            : Газовые коэффициенты
Ch       .UE            : Газовые коэффициенты
OPUS3    .UE            : Газовые коэффициенты
OPUS3_1  .UE            : Газовые коэффициенты
OPUS3_2  .UE            : Газовые коэффициенты
BurPor   .UE            : Буровая пористость
TOP      .m             : Кровля пласта
BOTM     .m             : Подошва пласта
DTH      .m             : Толщина пласта
TOPA     .m             : Абсолютные отметки кровли пластов
BTMA     .m             : Абсолютные отметки подошв пластов
RDTH     .m             : Приведенная толщина пластов
COLL     .UE            : Признак коллектора
~Other Information
#-----------------
~Ascii Log Data
# ...
   875.900 
     1.900     44.300      6.660    161.255     54.640     54.260     56.580 
     1.060     40.975    204.900      8.250    295.300      1.170      1.170 
    83.040     82.480     33.420     31.000     89.945      0.683      0.023 
     0.000      0.000      0.000      0.706      5.045     18.000      1.210 
     0.056      0.165  11688.742      0.033     37.617   3749.126 141029.522 
    37.144 -32768.000 -32768.000 -32768.000 -32768.000 -32768.000 -32768.000 
-32768.000 
   876.000 
     1.800     43.900      7.060    161.500     54.640     54.260     55.670 
     1.080     40.800    204.720      8.700    295.300      1.170      1.170 
    83.030     82.320     33.420     31.000     89.950      0.683      0.023 
     0.000      0.000      0.000      0.706      5.045     18.000      1.210 
     0.057      0.165  11688.742      0.033     37.617   3749.126 141029.522 
    36.124 -32768.000 -32768.000 -32768.000 -32768.000 -32768.000 -32768.000 
-32768.000 
   876.100 
     1.700     44.450      6.515    159.550     54.640     54.260     55.370 
     1.085     40.745    204.670      8.700    295.300      1.170      1.170 
    83.020     82.320     33.425     31.000     89.980      0.779      0.026 
     0.000      0.000      0.000      0.805      5.753     18.000      1.210 
     0.066      0.164  11466.262      0.029     37.891   3673.045 139152.165 
    37.161 -32768.000 -32768.000 -32768.000 -32768.000 -32768.000 -32768.000 
-32768.000 
   876.200 
     1.600     45.000      5.970    157.600     54.640     54.260     55.070 
     1.090     40.690    204.620      8.700    295.300      1.170      1.170 
    83.010     82.320     33.430     31.000     90.010      0.875      0.029 
     0.000      0.000      0.000      0.904      6.460     18.000      1.210 
     0.074      0.163  11243.781      0.025     38.164   3596.964 137274.808 
    38.199 -32768.000 -32768.000 -32768.000 -32768.000 -32768.000 -32768.000 
-32768.000 
   876.300 
     1.500     45.100      5.900    160.010     54.640     54.260     55.220 
     1.085     40.885    204.810      8.500    295.300      1.170      1.170 
    83.010     82.480     33.430     31.000     89.985      0.875      0.029 
     0.000      0.000      0.000      0.904      6.460     18.000      1.210 
     0.074      0.163  11243.781      0.025     38.164   3596.964 137274.808 
    38.405 -32768.000 -32768.000 -32768.000 -32768.000 -32768.000 -32768.000 
-32768.000 
   876.400 
     1.400     45.200      5.830    162.420     54.640     54.260     55.370 
     1.080     41.080    205.000      8.300    295.300      1.170      1.170 
    83.010     82.640     33.430     31.000     89.960      0.875      0.029 
     0.000      0.000      0.000      0.904      6.460     18.000      1.210 
     0.073      0.163  11243.781      0.025     38.164   3596.964 137274.808 
    38.612 -32768.000 -32768.000 -32768.000 -32768.000 -32768.000 -32768.000 
-32768.000 
   876.500 
    14.700     47.150      3.880    157.175     54.640     54.260     40.120 
     1.745     40.545    204.470      7.400    295.300      1.170      1.170 
    83.015     82.640     33.350     30.950     89.075      0.461      0.015 
     0.000      0.000      0.000      0.475      3.398     18.000      1.210 
     0.041      0.140   6773.851      0.063     43.792   2119.722  84513.546 
    40.725 -32768.000 -32768.000 -32768.000 -32768.000 -32768.000 -32768.000 
-32768.000 
   876.600 
    28.000     49.100      1.930    151.930     54.640     54.260     24.870 
     2.410     40.010    203.940      6.500    295.300      1.170      1.170 
    83.020     82.640     33.270     30.900     88.190      0.046      0.001 
     0.000      0.000      0.000      0.047      0.336     18.000      1.210 
     0.009      0.117   2303.922      0.100     49.421    642.479  31752.285 
    42.838 -32768.000 -32768.000 -32768.000 -32768.000 -32768.000 -32768.000 
-32768.000 
   876.700 
    27.900     49.650      1.350    151.940     54.645     54.265     29.465 
     2.085     40.075    204.010      6.500    295.300      1.170      1.170 
    83.030     82.640     33.270     30.900     88.220      0.046      0.001 
     0.000      0.000      0.000      0.047      0.336     18.000      1.210 
     0.007      0.117   2303.922      0.100     49.421    642.479  31752.285 
    52.122 -32768.000 -32768.000 -32768.000 -32768.000 -32768.000 -32768.000 
-32768.000 
   876.800 
    27.800     50.200      0.770    151.950     54.650     54.270     34.060 
     1.760     40.140    204.080      6.500    295.300      1.170      1.170 
    83.040     82.640     33.270     30.900     88.250      0.046      0.001 
     0.000      0.000      0.000      0.047      0.336     18.000      1.210 
     0.006      0.117   2303.922      0.100     49.421    642.479  31752.285 
    61.406 -32768.000 -32768.000 -32768.000 -32768.000 -32768.000 -32768.000 
-32768.000 
   876.900 
    27.700     50.000      1.005    153.120     54.640     54.260     34.175 
     1.755     40.120    204.035      6.600    295.300      1.170      1.170 
    83.040     82.480     33.270     30.900     88.445      0.053      0.002 
     0.000      0.000      0.000      0.054      0.390     18.000      1.210 
     0.007      0.147   1919.287      0.075     40.826    530.744  22628.755 
    57.757 -32768.000 -32768.000 -32768.000 -32768.000 -32768.000 -32768.000 
-32768.000 
   877.000 
    27.600     49.800      1.240    154.290     54.630     54.250     34.290 
     1.750     40.100    203.990      6.700    295.300      1.170      1.170 
    83.040     82.320     33.270     30.900     88.640      0.060      0.002 
     0.000      0.000      0.000      0.062      0.444     18.000      1.210 
     0.008      0.177   1534.653      0.050     32.231    419.008  13505.225 
    54.108 -32768.000 -32768.000 -32768.000 -32768.000 -32768.000 -32768.000 
-32768.000 
   877.100 
    27.500     49.600      1.435    153.535     54.635     54.255     36.610 
     1.645     39.895    203.800      7.000    295.300      1.170      1.170 
    83.020     82.480     33.270     30.900     88.605      0.059      0.002 
     0.000      0.000      0.000      0.061      0.441     18.000      1.210 
     0.007      0.178   1522.277      0.050     31.962    415.517  13282.013 
    53.011 -32768.000 -32768.000 -32768.000 -32768.000 -32768.000 -32768.000 
-32768.000 
   877.200 
    27.400     49.400      1.630    152.780     54.640     54.260     38.930 
     1.540     39.690    203.610      7.300    295.300      1.170      1.170 
    83.000     82.640     33.270     30.900     88.570      0.059      0.002 
     0.000      0.000      0.000      0.061      0.437     18.000      1.210 
     0.007      0.180   1509.901      0.050     31.694    412.025  13058.802 
    51.914 -32768.000 -32768.000 -32768.000 -32768.000 -32768.000 -32768.000 
-32768.000 
   877.300 
    27.300     48.350      2.660    155.655     54.640     54.260     49.020 
     1.280     39.765    203.685      7.600    295.300      1.170      1.170 
    83.020     82.640     33.270     30.900     88.565      0.059      0.002 
     0.000      0.000      0.000      0.061      0.437     18.000      1.210 
     0.006      0.180   1509.901      0.050     31.694    412.025  13058.802 
    48.897 -32768.000 -32768.000 -32768.000 -32768.000 -32768.000 -32768.000 
-32768.000 
   877.400 
    27.200     47.300      3.690    158.530     54.640     54.260     59.110 
     1.020     39.840    203.760      7.900    295.300      1.170      1.170 
    83.040     82.640     33.270     30.900     88.560      0.059      0.002 
     0.000      0.000      0.000      0.061      0.437     18.000      1.210 
     0.005      0.180   1509.901      0.050     31.694    412.025  13058.802 
    45.879 -32768.000 -32768.000 -32768.000 -32768.000 -32768.000 -32768.000 
-32768.000 
   877.500 
    27.100     46.750      4.230    158.860     54.640     54.260     57.545 
     1.045     40.090    204.005      7.850    295.300      1.170      1.170 
    83.030     82.640     33.270     30.900     88.550      0.059      0.002 
     0.000      0.000      0.000      0.061      0.437     18.000      1.210 
     0.005      0.180   1509.901      0.050     31.694    412.025  13058.802 
    43.699 -32768.000 -32768.000 -32768.000 -32768.000 -32768.000 -32768.000 
-32768.000 
