~Version Information
#-------------------
VERS.        2.0: CWLS log ASCII Standart - VERSION 2.0
WRAP.        YES: Multiple lines per depth step
~Well Information Block
#----------------------
#MNEM.UNIT  VALUE: DESCRIPTION
#----.---- -------: -------------
STRT.м                  34.4: Начальная глубина
STOP.м                  3192: Конечная глубина
STEP.м                   0.1: Шаг квантования
NULL.              -32768.00: Код отсутствия
COMP.            LUKOIL-KOMI: Название организации
WELL.                    207: Наименование скважины
FLD .       YAREIUSKOE FIELD: Наименование площади
LOC .                    NAO: Расположение скважины
CTRY.                 RUSSIA: Название страны
SRVC.                   PNGG: Наим.орг-ции, проводившей каротаж
DATE.             01.02.2020: Дата регистрации каротажных данных
UWI .                      0: Уникальный идентификатор скважины
~Parameter Information
#---------------------
#MNEM.UNIT         VALUE: DESCRIPTION
#----.----       -------: ---------------
~Curve Information Block
#-----------------------
#MNEM  .UNIT          : CURVE DESCRIPTION
#------.----          : -----------------
DEPT     .m             : Колонка глубины
Hk       .m             : Положение крюка
Wk       .t             : Вес инструмента на крюке
Wd       .t             : Нагрузка на долото
Pin      .atm           : Давление на входе
Qin      .c3/s          : Расход промывочной жидкости на входе
Qout      .c3/s         : Расход промывочной жидкости на выходе
Vmex     .m/h           : Скорость бурения
DMK      .min/m         : Время бурения 1 метра
Np       .ob/min        : Частота оборотов ротора
Nd       .ob/min        : Частота оборотов долота
Mp       .OE            : Крутящий момент на роторе
Dd       .mm            : Диаметр долота
Yin      .g/c3          : Плотность раствора на входе в скважину
Yout     .g/c3          : Плотность раствора на выходе из скважины
Xn1      .h/min         : Ходы насоса 1
Xn2      .h/min         : Ходы насоса 2
Tin      .°С            : Температура раствора на входе
Tout     .°С            : Температура раствора на выходе
Vemk     .m3            : Общий объем раствора в емкостях
C1       .%             : Содержание метана
C2       .%             : Содержание этана
C3       .%             : Содержание пропана
C4       .%             : Содержание бутана
C5       .%             : Содержание пентана
Сuv      .%             : Сумма компонентов углеводородов
Кgazkontr.UE            : Коэффмциент газовой контр.
Lit      .OE            : Литологический код породы
Yn       .g/c3          : Эквивалентная плотность раствора
Cuvp     .c3/d3         : Приведенная сумма компонентов углеводородов в растворе
Wh       .UE            : Газовые коэффициенты
Bh       .UE            : Газовые коэффициенты
Ch       .UE            : Газовые коэффициенты
OPUS3    .UE            : Газовые коэффициенты
OPUS3_1  .UE            : Газовые коэффициенты
OPUS3_2  .UE            : Газовые коэффициенты
BurPor   .UE            : Буровая пористость
TOP      .m             : Кровля пласта
BOTM     .m             : Подошва пласта
DTH      .m             : Толщина пласта
TOPA     .m             : Абсолютные отметки кровли пластов
BTMA     .m             : Абсолютные отметки подошв пластов
RDTH     .m             : Приведенная толщина пластов
COLL     .UE            : Признак коллектора
~Other Information
#-----------------
~Ascii Log Data
# ...
   454.300 
    30.800     25.000      3.005     97.125     55.975     55.595     56.910 
     1.055     18.735    186.645      4.300    393.700      1.180      1.180 
    85.035     84.560     33.440     31.900     81.970      0.084      0.000 
     0.000      0.000      0.000      0.085      0.604 -32768.000      1.220 
     0.004      0.030    840.010      3.333      1.205      0.005      0.006 
    54.212 -32768.000 -32768.000 -32768.000 -32768.000 -32768.000 -32768.000 
-32768.000 
   454.400 
    30.700     25.100      2.930     97.360     55.980     55.600     55.020 
     1.090     18.720    186.640      4.300    393.700      1.180      1.180 
    85.050     84.560     33.440     31.900     81.870      0.084      0.000 
     0.000      0.000      0.000      0.085      0.604 -32768.000      1.220 
     0.004      0.030    840.010      3.333      1.205      0.005      0.006 
    54.086 -32768.000 -32768.000 -32768.000 -32768.000 -32768.000 -32768.000 
-32768.000 
   454.500 
    30.600     25.300      2.725     97.180     55.975     55.595     56.910 
     1.055     18.725    186.640      4.250    393.700      1.180      1.180 
    85.045     84.560     33.440     31.900     81.960      0.084      0.000 
     0.000      0.000      0.000      0.085      0.604 -32768.000      1.220 
     0.004      0.030    840.010      3.333      1.205      0.005      0.006 
    55.762 -32768.000 -32768.000 -32768.000 -32768.000 -32768.000 -32768.000 
-32768.000 
   454.600 
    30.500     25.500      2.520     97.000     55.970     55.590     58.800 
     1.020     18.730    186.640      4.200    393.700      1.180      1.180 
    85.040     84.560     33.440     31.900     82.050      0.084      0.000 
     0.000      0.000      0.000      0.085      0.604 -32768.000      1.220 
     0.004      0.030    840.010      3.333      1.205      0.005      0.006 
    57.438 -32768.000 -32768.000 -32768.000 -32768.000 -32768.000 -32768.000 
-32768.000 
   454.700 
    30.400     25.200      2.820     97.235     55.965     55.585     58.025 
     1.035     18.690    186.590      4.300    393.700      1.180      1.180 
    85.035     84.560     33.440     31.900     82.050      0.084      0.000 
     0.000      0.000      0.000      0.085      0.604 -32768.000      1.220 
     0.004      0.030    840.010      3.333      1.205      0.005      0.006 
    55.571 -32768.000 -32768.000 -32768.000 -32768.000 -32768.000 -32768.000 
-32768.000 
   454.800 
    30.300     24.900      3.120     97.470     55.960     55.580     57.250 
     1.050     18.650    186.540      4.400    393.700      1.180      1.180 
    85.030     84.560     33.440     31.900     82.050      0.084      0.000 
     0.000      0.000      0.000      0.085      0.604 -32768.000      1.220 
     0.004      0.030    840.010      3.333      1.205      0.005      0.006 
    53.704 -32768.000 -32768.000 -32768.000 -32768.000 -32768.000 -32768.000 
-32768.000 
   454.900 
    30.200     24.950      3.075     97.430     55.965     55.585     56.880 
     1.055     18.730    186.635      4.300    393.700      1.180      1.180 
    85.015     84.725     33.440     31.900     81.885      0.081      0.000 
     0.001      0.000      0.000      0.082      0.580 -32768.000      1.220 
     0.004      0.044    633.897      2.381      0.705      0.003      0.003 
    53.848 -32768.000 -32768.000 -32768.000 -32768.000 -32768.000 -32768.000 
-32768.000 
   455.000 
    30.100     25.000      3.030     97.390     55.970     55.590     56.510 
     1.060     18.810    186.730      4.200    393.700      1.180      1.180 
    85.000     84.890     33.440     31.900     81.720      0.077      0.000 
     0.001      0.000      0.000      0.078      0.556 -32768.000      1.220 
     0.004      0.058    427.783      1.429      0.204      0.000      0.000 
    53.992 -32768.000 -32768.000 -32768.000 -32768.000 -32768.000 -32768.000 
-32768.000 
   455.100 
    30.000     25.050      2.985     97.630     55.970     55.590     56.445 
     1.060     18.750    186.665      4.150    393.700      1.180      1.180 
    85.025     84.725     33.440     31.900     81.780      0.077      0.000 
     0.001      0.000      0.000      0.078      0.556 -32768.000      1.220 
     0.004      0.058    427.783      1.429      0.204      0.000      0.000 
    54.229 -32768.000 -32768.000 -32768.000 -32768.000 -32768.000 -32768.000 
-32768.000 
   455.200 
    29.900     25.100      2.940     97.870     55.970     55.590     56.380 
     1.060     18.690    186.600      4.100    393.700      1.180      1.180 
    85.050     84.560     33.440     31.900     81.840      0.077      0.000 
     0.001      0.000      0.000      0.078      0.556 -32768.000      1.220 
     0.004      0.058    427.783      1.429      0.204      0.000      0.000 
    54.465 -32768.000 -32768.000 -32768.000 -32768.000 -32768.000 -32768.000 
-32768.000 
   455.300 
    29.800     24.500      3.505     97.640     55.965     55.585     57.930 
     1.035     18.670    186.560      4.200    393.700      1.180      1.180 
    85.045     84.560     33.440     31.900     81.825      0.077      0.000 
     0.001      0.000      0.000      0.078      0.556 -32768.000      1.220 
     0.003      0.058    427.783      1.429      0.204      0.000      0.000 
    52.362 -32768.000 -32768.000 -32768.000 -32768.000 -32768.000 -32768.000 
-32768.000 
   455.400 
    29.700     23.900      4.070     97.410     55.960     55.580     59.480 
     1.010     18.650    186.520      4.300    393.700      1.180      1.180 
    85.040     84.560     33.440     31.900     81.810      0.077      0.000 
     0.001      0.000      0.000      0.078      0.556 -32768.000      1.220 
     0.003      0.058    427.783      1.429      0.204      0.000      0.000 
    50.260 -32768.000 -32768.000 -32768.000 -32768.000 -32768.000 -32768.000 
-32768.000 
   455.500 
    29.600     23.950      4.055     97.560     55.965     55.585     57.730 
     1.040     18.735    186.620      4.300    393.700      1.180      1.180 
    85.030     84.560     33.440     31.900     81.820      0.077      0.000 
     0.001      0.000      0.000      0.078      0.556 -32768.000      1.220 
     0.004      0.058    427.783      1.429      0.204      0.000      0.000 
    49.875 -32768.000 -32768.000 -32768.000 -32768.000 -32768.000 -32768.000 
-32768.000 
   455.600 
    29.500     24.000      4.040     97.710     55.970     55.590     55.980 
     1.070     18.820    186.720      4.300    393.700      1.180      1.180 
    85.020     84.560     33.440     31.900     81.830      0.077      0.000 
     0.001      0.000      0.000      0.078      0.556 -32768.000      1.220 
     0.004      0.058    427.783      1.429      0.204      0.000      0.000 
    49.490 -32768.000 -32768.000 -32768.000 -32768.000 -32768.000 -32768.000 
-32768.000 
   455.700 
    29.400     23.950      4.045     97.655     55.970     55.590     56.245 
     1.065     18.735    186.635      4.250    393.700      1.180      1.180 
    85.035     84.560     33.445     31.900     81.775      0.077      0.000 
     0.001      0.000      0.000      0.078      0.556 -32768.000      1.220 
     0.004      0.058    427.783      1.429      0.204      0.000      0.000 
    49.548 -32768.000 -32768.000 -32768.000 -32768.000 -32768.000 -32768.000 
-32768.000 
   455.800 
    29.300     23.900      4.050     97.600     55.970     55.590     56.510 
     1.060     18.650    186.550      4.200    393.700      1.180      1.180 
    85.050     84.560     33.450     31.900     81.720      0.077      0.000 
     0.001      0.000      0.000      0.078      0.556 -32768.000      1.220 
     0.004      0.058    427.783      1.429      0.204      0.000      0.000 
    49.607 -32768.000 -32768.000 -32768.000 -32768.000 -32768.000 -32768.000 
-32768.000 
   455.900 
    29.200     24.150      3.825     97.760     55.975     55.595     57.855 
     1.035     18.670    186.590      4.250    393.700      1.180      1.180 
    85.055     84.560     33.450     31.900     81.705      0.077      0.000 
     0.001      0.000      0.000      0.078      0.556 -32768.000      1.220 
     0.004      0.058    427.783      1.429      0.204      0.000      0.000 
    50.856 -32768.000 -32768.000 -32768.000 -32768.000 -32768.000 -32768.000 
-32768.000 
