~Version Information
#-------------------
VERS.        2.0: CWLS log ASCII Standart - VERSION 2.0
WRAP.        YES: Multiple lines per depth step
~Well Information Block
#----------------------
#MNEM.UNIT  VALUE: DESCRIPTION
#----.---- -------: -------------
STRT.м                  34.4: Начальная глубина
STOP.м                  3192: Конечная глубина
STEP.м                   0.1: Шаг квантования
NULL.              -32768.00: Код отсутствия
COMP.            LUKOIL-KOMI: Название организации
WELL.                    207: Наименование скважины
FLD .       YAREIUSKOE FIELD: Наименование площади
LOC .                    NAO: Расположение скважины
CTRY.                 RUSSIA: Название страны
SRVC.                   PNGG: Наим.орг-ции, проводившей каротаж
DATE.             01.02.2020: Дата регистрации каротажных данных
UWI .                      0: Уникальный идентификатор скважины
~Parameter Information
#---------------------
#MNEM.UNIT         VALUE: DESCRIPTION
#----.----       -------: ---------------
~Curve Information Block
#-----------------------
#MNEM  .UNIT          : CURVE DESCRIPTION
#------.----          : -----------------
DEPT     .m             : Колонка глубины
Hk       .m             : Положение крюка
Wk       .t             : Вес инструмента на крюке
Wd       .t             : Нагрузка на долото
Pin      .atm           : Давление на входе
Qin      .c3/s          : Расход промывочной жидкости на входе
Qout      .c3/s         : Расход промывочной жидкости на выходе
Vmex     .m/h           : Скорость бурения
DMK      .min/m         : Время бурения 1 метра
Np       .ob/min        : Частота оборотов ротора
Nd       .ob/min        : Частота оборотов долота
Mp       .OE            : Крутящий момент на роторе
Dd       .mm            : Диаметр долота
Yin      .g/c3          : Плотность раствора на входе в скважину
Yout     .g/c3          : Плотность раствора на выходе из скважины
Xn1      .h/min         : Ходы насоса 1
Xn2      .h/min         : Ходы насоса 2
Tin      .°С            : Температура раствора на входе
Tout     .°С            : Температура раствора на выходе
Vemk     .m3            : Общий объем раствора в емкостях
C1       .%             : Содержание метана
C2       .%             : Содержание этана
C3       .%             : Содержание пропана
C4       .%             : Содержание бутана
C5       .%             : Содержание пентана
Сuv      .%             : Сумма компонентов углеводородов
Кgazkontr.UE            : Коэффмциент газовой контр.
Lit      .OE            : Литологический код породы
Yn       .g/c3          : Эквивалентная плотность раствора
Cuvp     .c3/d3         : Приведенная сумма компонентов углеводородов в растворе
Wh       .UE            : Газовые коэффициенты
Bh       .UE            : Газовые коэффициенты
Ch       .UE            : Газовые коэффициенты
OPUS3    .UE            : Газовые коэффициенты
OPUS3_1  .UE            : Газовые коэффициенты
OPUS3_2  .UE            : Газовые коэффициенты
BurPor   .UE            : Буровая пористость
TOP      .m             : Кровля пласта
BOTM     .m             : Подошва пласта
DTH      .m             : Толщина пласта
TOPA     .m             : Абсолютные отметки кровли пластов
BTMA     .m             : Абсолютные отметки подошв пластов
RDTH     .m             : Приведенная толщина пластов
COLL     .UE            : Признак коллектора
~Other Information
#-----------------
~Ascii Log Data
# ...
  2558.900 
    15.820     52.695      3.556    167.500     35.680     35.298     32.090 
     1.884     54.975    107.040     21.755    219.100      1.032      1.036 
    86.845     87.170     36.672     38.155     40.165      0.111      0.002 
     0.000      0.001      0.004      0.118      0.842     18.000      1.072 
     0.020      0.290    116.808    442.870     68.406   3293.632 225304.821 
    40.894 -32768.000 -32768.000 -32768.000 -32768.000 -32768.000 -32768.000 
-32768.000 
  2559.000 
    15.720     53.020      3.448    168.000     35.680     35.298     29.300 
     2.048     54.610    107.040     21.590    219.100      1.032      1.036 
    86.820     87.160     36.672     38.150     40.160      0.111      0.002 
     0.000      0.001      0.004      0.118      0.842     18.000      1.072 
     0.022      0.290    116.808    442.870     68.406   3293.632 225304.821 
    40.111 -32768.000 -32768.000 -32768.000 -32768.000 -32768.000 -32768.000 
-32768.000 
  2559.100 
    15.620     53.340      3.448    168.000     35.680     35.298     27.280 
     2.212     54.980    107.040     21.765    219.100      1.032      1.036 
    86.855     87.180     36.672     38.140     40.165      0.111      0.002 
     0.000      0.001      0.004      0.118      0.842     18.000      1.072 
     0.024      0.290    116.808    442.870     68.406   3293.632 225304.821 
    39.116 -32768.000 -32768.000 -32768.000 -32768.000 -32768.000 -32768.000 
-32768.000 
  2559.200 
    15.520     53.660      3.448    168.000     35.680     35.298     25.260 
     2.375     55.350    107.040     21.940    219.100      1.032      1.036 
    86.890     87.200     36.671     38.130     40.170      0.111      0.002 
     0.000      0.001      0.004      0.118      0.842     18.000      1.072 
     0.025      0.290    116.808    442.870     68.406   3293.632 225304.821 
    38.121 -32768.000 -32768.000 -32768.000 -32768.000 -32768.000 -32768.000 
-32768.000 
  2559.300 
    15.415     53.985      3.448    168.500     35.675     35.293     27.280 
     2.211     55.065    107.025     21.830    219.100      1.032      1.036 
    86.855     87.180     36.669     38.115     40.170      0.111      0.002 
     0.000      0.001      0.004      0.118      0.842     18.000      1.072 
     0.023      0.290    116.808    442.870     68.406   3293.632 225304.821 
    39.118 -32768.000 -32768.000 -32768.000 -32768.000 -32768.000 -32768.000 
-32768.000 
  2559.400 
    15.310     54.310      3.448    169.000     35.670     35.288     29.300 
     2.048     54.780    107.010     21.720    219.100      1.032      1.036 
    86.820     87.160     36.666     38.100     40.170      0.111      0.002 
     0.000      0.001      0.004      0.118      0.842     18.000      1.072 
     0.022      0.290    116.808    442.870     68.406   3293.632 225304.821 
    40.115 -32768.000 -32768.000 -32768.000 -32768.000 -32768.000 -32768.000 
-32768.000 
  2559.500 
    15.210     54.525      3.448    168.500     35.675     35.293     32.090 
     1.884     54.825    107.025     21.575    219.100      1.032      1.036 
    86.855     87.180     36.665     38.150     40.165      0.111      0.002 
     0.000      0.001      0.004      0.118      0.842     18.000      1.072 
     0.020      0.290    116.808    442.870     68.406   3293.632 225304.821 
    41.319 -32768.000 -32768.000 -32768.000 -32768.000 -32768.000 -32768.000 
-32768.000 
  2559.600 
    15.110     54.740      3.448    168.000     35.680     35.298     34.880 
     1.720     54.870    107.040     21.430    219.100      1.032      1.036 
    86.890     87.200     36.664     38.200     40.160      0.111      0.002 
     0.000      0.001      0.004      0.118      0.842     18.000      1.072 
     0.018      0.290    116.808    442.870     68.406   3293.632 225304.821 
    42.524 -32768.000 -32768.000 -32768.000 -32768.000 -32768.000 -32768.000 
-32768.000 
  2559.700 
    15.010     54.955      3.448    167.500     35.680     35.298     32.090 
     1.884     55.295    107.040     21.610    219.100      1.032      1.036 
    86.870     87.200     36.654     38.250     40.170      0.111      0.002 
     0.000      0.001      0.004      0.118      0.842     18.000      1.071 
     0.020      0.290    116.808    442.870     68.406   3293.632 225304.821 
    41.311 -32768.000 -32768.000 -32768.000 -32768.000 -32768.000 -32768.000 
-32768.000 
  2559.800 
    14.910     55.170      3.448    167.000     35.680     35.298     29.300 
     2.048     55.720    107.040     21.790    219.100      1.031      1.036 
    86.850     87.200     36.644     38.300     40.180      0.111      0.002 
     0.000      0.001      0.004      0.118      0.842     18.000      1.071 
     0.022      0.290    116.808    442.870     68.406   3293.632 225304.821 
    40.098 -32768.000 -32768.000 -32768.000 -32768.000 -32768.000 -32768.000 
-32768.000 
  2559.900 
    14.805     55.385      3.448    167.000     35.680     35.298     31.300 
     1.925     55.590    107.040     22.070    219.100      1.031      1.036 
    86.850     87.170     36.645     38.290     40.175      0.111      0.002 
     0.000      0.001      0.004      0.118      0.842     18.000      1.071 
     0.021      0.290    116.808    442.870     68.406   3293.632 225304.821 
    40.979 -32768.000 -32768.000 -32768.000 -32768.000 -32768.000 -32768.000 
-32768.000 
  2560.000 
    14.700     55.600      3.448    167.000     35.680     35.298     33.300 
     1.802     55.460    107.040     22.350    219.100      1.031      1.036 
    86.850     87.140     36.646     38.280     40.170      0.111      0.002 
     0.000      0.001      0.004      0.118      0.842     18.000      1.071 
     0.019      0.290    116.808    442.870     68.406   3293.632 225304.821 
    41.860 -32768.000 -32768.000 -32768.000 -32768.000 -32768.000 -32768.000 
-32768.000 
  2560.100 
    14.600     55.600      3.448    168.500     35.680     35.298     34.090 
     1.761     55.015    107.040     22.405    219.100      1.031      1.036 
    86.835     87.170     36.645     38.280     40.175      0.119      0.002 
     0.000      0.001      0.004      0.126      0.899     18.000      1.071 
     0.020      0.255    142.254    316.814     71.972   2638.713 187577.115 
    42.185 -32768.000 -32768.000 -32768.000 -32768.000 -32768.000 -32768.000 
-32768.000 
  2560.200 
    14.500     55.600      3.448    170.000     35.680     35.298     34.880 
     1.720     54.570    107.040     22.460    219.100      1.031      1.036 
    86.820     87.200     36.643     38.280     40.180      0.128      0.002 
     0.000      0.001      0.003      0.134      0.956     18.000      1.071 
     0.021      0.219    167.699    190.758     75.537   1983.794 149849.409 
    42.511 -32768.000 -32768.000 -32768.000 -32768.000 -32768.000 -32768.000 
-32768.000 
  2560.300 
    14.405     55.600      3.448    171.000     35.680     35.298     35.910 
     1.672     54.640    107.040     22.375    219.100      1.031      1.036 
    86.830     87.210     36.642     38.175     40.170      0.128      0.002 
     0.000      0.001      0.003      0.134      0.956     18.000      1.071 
     0.020      0.219    167.699    190.758     75.537   1983.794 149849.409 
    42.916 -32768.000 -32768.000 -32768.000 -32768.000 -32768.000 -32768.000 
-32768.000 
  2560.400 
    14.310     55.600      3.448    172.000     35.680     35.298     36.940 
     1.624     54.710    107.040     22.290    219.100      1.031      1.036 
    86.840     87.220     36.641     38.070     40.160      0.128      0.002 
     0.000      0.001      0.003      0.134      0.956     18.000      1.071 
     0.019      0.219    167.699    190.758     75.537   1983.794 149849.409 
    43.320 -32768.000 -32768.000 -32768.000 -32768.000 -32768.000 -32768.000 
-32768.000 
  2560.500 
    14.215     55.600      3.448    173.000     35.680     35.298     37.750 
     1.590     54.890    107.040     22.065    219.100      1.031      1.036 
    86.830     87.190     36.641     37.990     40.170      0.128      0.002 
     0.000      0.001      0.003      0.134      0.956     18.000      1.071 
     0.019      0.219    167.699    190.758     75.537   1983.794 149849.409 
    43.623 -32768.000 -32768.000 -32768.000 -32768.000 -32768.000 -32768.000 
-32768.000 
