~Version Information
#-------------------
VERS.        2.0: CWLS log ASCII Standart - VERSION 2.0
WRAP.        YES: Multiple lines per depth step
~Well Information Block
#----------------------
#MNEM.UNIT  VALUE: DESCRIPTION
#----.---- -------: -------------
STRT.м                  34.4: Начальная глубина
STOP.м                  3192: Конечная глубина
STEP.м                   0.1: Шаг квантования
NULL.              -32768.00: Код отсутствия
COMP.            LUKOIL-KOMI: Название организации
WELL.                    207: Наименование скважины
FLD .       YAREIUSKOE FIELD: Наименование площади
LOC .                    NAO: Расположение скважины
CTRY.                 RUSSIA: Название страны
SRVC.                   PNGG: Наим.орг-ции, проводившей каротаж
DATE.             01.02.2020: Дата регистрации каротажных данных
UWI .                      0: Уникальный идентификатор скважины
~Parameter Information
#---------------------
#MNEM.UNIT         VALUE: DESCRIPTION
#----.----       -------: ---------------
~Curve Information Block
#-----------------------
#MNEM  .UNIT          : CURVE DESCRIPTION
#------.----          : -----------------
DEPT     .m             : Колонка глубины
Hk       .m             : Положение крюка
Wk       .t             : Вес инструмента на крюке
Wd       .t             : Нагрузка на долото
Pin      .atm           : Давление на входе
Qin      .c3/s          : Расход промывочной жидкости на входе
Qout      .c3/s         : Расход промывочной жидкости на выходе
Vmex     .m/h           : Скорость бурения
DMK      .min/m         : Время бурения 1 метра
Np       .ob/min        : Частота оборотов ротора
Nd       .ob/min        : Частота оборотов долота
Mp       .OE            : Крутящий момент на роторе
Dd       .mm            : Диаметр долота
Yin      .g/c3          : Плотность раствора на входе в скважину
Yout     .g/c3          : Плотность раствора на выходе из скважины
Xn1      .h/min         : Ходы насоса 1
Xn2      .h/min         : Ходы насоса 2
Tin      .°С            : Температура раствора на входе
Tout     .°С            : Температура раствора на выходе
Vemk     .m3            : Общий объем раствора в емкостях
C1       .%             : Содержание метана
C2       .%             : Содержание этана
C3       .%             : Содержание пропана
C4       .%             : Содержание бутана
C5       .%             : Содержание пентана
Сuv      .%             : Сумма компонентов углеводородов
Кgazkontr.UE            : Коэффмциент газовой контр.
Lit      .OE            : Литологический код породы
Yn       .g/c3          : Эквивалентная плотность раствора
Cuvp     .c3/d3         : Приведенная сумма компонентов углеводородов в растворе
Wh       .UE            : Газовые коэффициенты
Bh       .UE            : Газовые коэффициенты
Ch       .UE            : Газовые коэффициенты
OPUS3    .UE            : Газовые коэффициенты
OPUS3_1  .UE            : Газовые коэффициенты
OPUS3_2  .UE            : Газовые коэффициенты
BurPor   .UE            : Буровая пористость
TOP      .m             : Кровля пласта
BOTM     .m             : Подошва пласта
DTH      .m             : Толщина пласта
TOPA     .m             : Абсолютные отметки кровли пластов
BTMA     .m             : Абсолютные отметки подошв пластов
RDTH     .m             : Приведенная толщина пластов
COLL     .UE            : Признак коллектора
~Other Information
#-----------------
~Ascii Log Data
# ...
   245.200 
    12.700     18.000      5.490     84.590     57.940     57.560     36.780 
     1.630     18.170    192.000      3.300    393.700      1.160      1.160 
    88.050     87.560     34.040     32.400     72.470      0.071      0.001 
     0.000      0.001      0.000      0.073      0.521 -32768.000      1.200 
     0.005      0.137    360.000     11.667     54.615    236.667  12925.641 
    38.519 -32768.000 -32768.000 -32768.000 -32768.000 -32768.000 -32768.000 
-32768.000 
   245.300 
    12.600     18.750      4.760     86.625     57.940     57.560     36.500 
     1.645     18.160    191.990      3.500    393.700      1.160      1.160 
    88.035     87.560     34.040     32.400     72.440      0.076      0.002 
     0.000      0.001      0.000      0.079      0.561 -32768.000      1.200 
     0.006      0.158    387.500     15.834     49.063    401.164  18769.457 
    40.510 -32768.000 -32768.000 -32768.000 -32768.000 -32768.000 -32768.000 
-32768.000 
   245.400 
    12.500     19.500      4.030     88.660     57.940     57.560     36.220 
     1.660     18.150    191.980      3.700    393.700      1.160      1.160 
    88.020     87.560     34.040     32.400     72.410      0.081      0.002 
     0.000      0.001      0.000      0.084      0.600 -32768.000      1.200 
     0.006      0.179    415.000     20.000     43.512    565.661  24613.273 
    42.501 -32768.000 -32768.000 -32768.000 -32768.000 -32768.000 -32768.000 
-32768.000 
   245.500 
    12.350     20.850      2.640     88.840     57.940     57.560     35.930 
     1.670     18.160    191.975      3.700    393.700      1.160      1.160 
    88.010     87.560     34.040     32.400     72.355      0.081      0.002 
     0.000      0.001      0.000      0.084      0.600 -32768.000      1.200 
     0.006      0.179    415.000     20.000     43.512    565.661  24613.273 
    51.190 -32768.000 -32768.000 -32768.000 -32768.000 -32768.000 -32768.000 
-32768.000 
   245.600 
    12.200     22.200      1.250     89.020     57.940     57.560     35.640 
     1.680     18.170    191.970      3.700    393.700      1.160      1.160 
    88.000     87.560     34.040     32.400     72.300      0.081      0.002 
     0.000      0.001      0.000      0.084      0.600 -32768.000      1.200 
     0.006      0.179    415.000     20.000     43.512    565.661  24613.273 
    59.879 -32768.000 -32768.000 -32768.000 -32768.000 -32768.000 -32768.000 
-32768.000 
   245.700 
    12.100     20.400      3.065     87.880     57.945     57.565     36.045 
     1.665     18.220    192.050      3.600    393.700      1.160      1.160 
    88.025     87.560     34.040     32.400     72.265      0.081      0.002 
     0.000      0.001      0.000      0.084      0.600 -32768.000      1.200 
     0.006      0.179    415.000     20.000     43.512    565.661  24613.273 
    49.905 -32768.000 -32768.000 -32768.000 -32768.000 -32768.000 -32768.000 
-32768.000 
   245.800 
    12.000     18.600      4.880     86.740     57.950     57.570     36.450 
     1.650     18.270    192.130      3.500    393.700      1.160      1.160 
    88.050     87.560     34.040     32.400     72.230      0.081      0.002 
     0.000      0.001      0.000      0.084      0.600 -32768.000      1.200 
     0.006      0.179    415.000     20.000     43.512    565.661  24613.273 
    39.931 -32768.000 -32768.000 -32768.000 -32768.000 -32768.000 -32768.000 
-32768.000 
   245.900 
    11.900     18.700      4.790     87.570     57.945     57.565     36.505 
     1.645     18.235    192.075      3.300    393.700      1.160      1.160 
    88.050     87.560     34.045     32.400     72.175      0.085      0.003 
     0.000      0.001      0.000      0.088      0.632 -32768.000      1.200 
     0.006      0.197    437.500     20.000     38.704    613.321  23509.110 
    40.233 -32768.000 -32768.000 -32768.000 -32768.000 -32768.000 -32768.000 
-32768.000 
   246.000 
    11.800     18.800      4.700     88.400     57.940     57.560     36.560 
     1.640     18.200    192.020      3.100    393.700      1.160      1.160 
    88.050     87.560     34.050     32.400     72.120      0.089      0.003 
     0.000      0.001      0.000      0.093      0.664 -32768.000      1.200 
     0.007      0.215    460.000     20.000     33.896    660.981  22404.947 
    40.534 -32768.000 -32768.000 -32768.000 -32768.000 -32768.000 -32768.000 
-32768.000 
   246.100 
    11.700     20.550      2.965     80.605     57.030     56.650     36.670 
     1.635     18.235    189.325      2.300    393.700      1.160      1.160 
    85.345     83.555     34.045     32.450     72.055      0.089      0.003 
     0.000      0.001      0.000      0.093      0.664 -32768.000      1.200 
     0.007      0.215    460.000     20.000     33.896    660.981  22404.947 
    50.788 -32768.000 -32768.000 -32768.000 -32768.000 -32768.000 -32768.000 
-32768.000 
   246.200 
    11.600     22.300      1.230     72.810     56.120     55.740     36.780 
     1.630     18.270    186.630      1.500    393.700      1.160      1.160 
    82.640     79.550     34.040     32.500     71.990      0.089      0.003 
     0.000      0.001      0.000      0.093      0.664 -32768.000      1.200 
     0.007      0.215    460.000     20.000     33.896    660.981  22404.947 
    61.043 -32768.000 -32768.000 -32768.000 -32768.000 -32768.000 -32768.000 
-32768.000 
   246.300 
    11.450     21.000      2.505     72.230     54.620     54.240     37.065 
     1.620     18.205    182.060      1.800    393.700      1.160      1.160 
    81.360     79.550     34.040     32.500     71.990      0.088      0.002 
     0.000      0.001      0.000      0.091      0.652 -32768.000      1.200 
     0.006      0.155    547.857     11.875     46.132    425.337  16738.437 
    53.002 -32768.000 -32768.000 -32768.000 -32768.000 -32768.000 -32768.000 
-32768.000 
   246.400 
    11.300     19.700      3.780     71.650     53.120     52.740     37.350 
     1.610     18.140    177.490      2.100    393.700      1.160      1.160 
    80.080     79.550     34.040     32.500     71.990      0.088      0.001 
     0.000      0.000      0.000      0.090      0.641 -32768.000      1.200 
     0.006      0.095    635.714      3.750     58.367    189.694  11071.928 
    44.961 -32768.000 -32768.000 -32768.000 -32768.000 -32768.000 -32768.000 
-32768.000 
   246.500 
    11.200     21.400      2.080     70.805     52.925     52.545     37.350 
     1.610     18.240    177.015      1.900    393.700      1.160      1.160 
    80.065     79.550     34.045     32.500     71.975      0.090      0.002 
     0.001      0.000      0.000      0.093      0.663 -32768.000      1.200 
     0.006      0.149    581.746      3.125     43.026    184.824   8026.990 
    62.470 -32768.000 -32768.000 -32768.000 -32768.000 -32768.000 -32768.000 
-32768.000 
   246.600 
    11.100     23.100      0.380     69.960     52.730     52.350     37.350 
     1.610     18.340    176.540      1.700    393.700      1.160      1.160 
    80.050     79.550     34.050     32.500     71.960      0.092      0.003 
     0.001      0.000      0.000      0.096      0.685 -32768.000      1.200 
     0.006      0.203    527.778      2.500     27.685    179.954   4982.052 
    79.979 -32768.000 -32768.000 -32768.000 -32768.000 -32768.000 -32768.000 
-32768.000 
   246.700 
    11.000     21.950      1.555     69.345     52.705     52.325     37.240 
     1.615     18.290    176.410      1.400    393.700      1.160      1.160 
    80.035     79.550     34.050     32.500     71.950      0.092      0.003 
     0.001      0.000      0.000      0.096      0.685 -32768.000      1.200 
     0.006      0.203    527.778      2.500     27.685    179.954   4982.052 
    64.867 -32768.000 -32768.000 -32768.000 -32768.000 -32768.000 -32768.000 
-32768.000 
   246.800 
    10.900     20.800      2.730     68.730     52.680     52.300     37.130 
     1.620     18.240    176.280      1.100    393.700      1.160      1.160 
    80.020     79.550     34.050     32.500     71.940      0.092      0.003 
     0.001      0.000      0.000      0.096      0.685 -32768.000      1.200 
     0.006      0.203    527.778      2.500     27.685    179.954   4982.052 
    49.754 -32768.000 -32768.000 -32768.000 -32768.000 -32768.000 -32768.000 
-32768.000 
