~Version Information
#-------------------
VERS.        2.0: CWLS log ASCII Standart - VERSION 2.0
WRAP.        YES: Multiple lines per depth step
~Well Information Block
#----------------------
#MNEM.UNIT  VALUE: DESCRIPTION
#----.---- -------: -------------
STRT.м                  34.4: Начальная глубина
STOP.м                  3192: Конечная глубина
STEP.м                   0.1: Шаг квантования
NULL.              -32768.00: Код отсутствия
COMP.            LUKOIL-KOMI: Название организации
WELL.                    207: Наименование скважины
FLD .       YAREIUSKOE FIELD: Наименование площади
LOC .                    NAO: Расположение скважины
CTRY.                 RUSSIA: Название страны
SRVC.                   PNGG: Наим.орг-ции, проводившей каротаж
DATE.             01.02.2020: Дата регистрации каротажных данных
UWI .                      0: Уникальный идентификатор скважины
~Parameter Information
#---------------------
#MNEM.UNIT         VALUE: DESCRIPTION
#----.----       -------: ---------------
~Curve Information Block
#-----------------------
#MNEM  .UNIT          : CURVE DESCRIPTION
#------.----          : -----------------
DEPT     .m             : Колонка глубины
Hk       .m             : Положение крюка
Wk       .t             : Вес инструмента на крюке
Wd       .t             : Нагрузка на долото
Pin      .atm           : Давление на входе
Qin      .c3/s          : Расход промывочной жидкости на входе
Qout      .c3/s         : Расход промывочной жидкости на выходе
Vmex     .m/h           : Скорость бурения
DMK      .min/m         : Время бурения 1 метра
Np       .ob/min        : Частота оборотов ротора
Nd       .ob/min        : Частота оборотов долота
Mp       .OE            : Крутящий момент на роторе
Dd       .mm            : Диаметр долота
Yin      .g/c3          : Плотность раствора на входе в скважину
Yout     .g/c3          : Плотность раствора на выходе из скважины
Xn1      .h/min         : Ходы насоса 1
Xn2      .h/min         : Ходы насоса 2
Tin      .°С            : Температура раствора на входе
Tout     .°С            : Температура раствора на выходе
Vemk     .m3            : Общий объем раствора в емкостях
C1       .%             : Содержание метана
C2       .%             : Содержание этана
C3       .%             : Содержание пропана
C4       .%             : Содержание бутана
C5       .%             : Содержание пентана
Сuv      .%             : Сумма компонентов углеводородов
Кgazkontr.UE            : Коэффмциент газовой контр.
Lit      .OE            : Литологический код породы
Yn       .g/c3          : Эквивалентная плотность раствора
Cuvp     .c3/d3         : Приведенная сумма компонентов углеводородов в растворе
Wh       .UE            : Газовые коэффициенты
Bh       .UE            : Газовые коэффициенты
Ch       .UE            : Газовые коэффициенты
OPUS3    .UE            : Газовые коэффициенты
OPUS3_1  .UE            : Газовые коэффициенты
OPUS3_2  .UE            : Газовые коэффициенты
BurPor   .UE            : Буровая пористость
TOP      .m             : Кровля пласта
BOTM     .m             : Подошва пласта
DTH      .m             : Толщина пласта
TOPA     .m             : Абсолютные отметки кровли пластов
BTMA     .m             : Абсолютные отметки подошв пластов
RDTH     .m             : Приведенная толщина пластов
COLL     .UE            : Признак коллектора
~Other Information
#-----------------
~Ascii Log Data
# ...
  1717.400 
    14.400     40.400      4.640    193.470     36.190     35.810     55.980 
     1.070     40.150    148.720     11.600    219.100      1.220      1.220 
    54.970     54.670     34.390     31.120     92.790      0.000      0.000 
     0.000      0.000      0.000      0.000      0.000     24.000      1.260 
     0.000      4.000      3.333     10.000      0.325      0.422      0.137 
    42.752 -32768.000 -32768.000 -32768.000 -32768.000 -32768.000 -32768.000 
-32768.000 
  1717.500 
    14.300     40.200      4.840    196.200     36.185     35.805     57.730 
     1.040     40.260    148.820     11.500    219.100      1.220      1.220 
    54.970     54.570     34.390     31.120     92.830      0.000      0.000 
     0.000      0.000      0.000      0.000      0.000     24.000      1.260 
     0.000      4.000      3.333     10.000      0.325      0.422      0.137 
    42.568 -32768.000 -32768.000 -32768.000 -32768.000 -32768.000 -32768.000 
-32768.000 
  1717.600 
    14.200     40.000      5.040    198.930     36.180     35.800     59.480 
     1.010     40.370    148.920     11.400    219.100      1.220      1.220 
    54.970     54.470     34.390     31.120     92.870      0.000      0.000 
     0.000      0.000      0.000      0.000      0.000     24.000      1.260 
     0.000      4.000      3.333     10.000      0.325      0.422      0.137 
    42.383 -32768.000 -32768.000 -32768.000 -32768.000 -32768.000 -32768.000 
-32768.000 
  1717.700 
    14.100     39.950      5.055    197.225     36.185     35.805     57.730 
     1.040     40.160    148.715     11.850    219.100      1.220      1.220 
    54.965     54.570     34.395     31.120     92.885      0.000      0.000 
     0.000      0.000      0.000      0.000      0.000     24.000      1.260 
     0.000      4.000      3.333     10.000      0.325      0.422      0.137 
    41.958 -32768.000 -32768.000 -32768.000 -32768.000 -32768.000 -32768.000 
-32768.000 
  1717.800 
    14.000     39.900      5.070    195.520     36.190     35.810     55.980 
     1.070     39.950    148.510     12.300    219.100      1.220      1.220 
    54.960     54.670     34.400     31.120     92.900      0.000      0.000 
     0.000      0.000      0.000      0.000      0.000     24.000      1.260 
     0.000      4.000      3.333     10.000      0.325      0.422      0.137 
    41.534 -32768.000 -32768.000 -32768.000 -32768.000 -32768.000 -32768.000 
-32768.000 
  1717.900 
    13.900     40.550      4.440    198.765     36.185     35.805     56.245 
     1.065     40.070    148.620     12.050    219.100      1.220      1.220 
    54.965     54.670     34.405     31.120     92.905      0.000      0.000 
     0.000      0.000      0.000      0.000      0.000     24.000      1.260 
     0.000      4.000      3.333     10.000      0.325      0.422      0.137 
    43.618 -32768.000 -32768.000 -32768.000 -32768.000 -32768.000 -32768.000 
-32768.000 
  1718.000 
    13.800     41.200      3.810    202.010     36.180     35.800     56.510 
     1.060     40.190    148.730     11.800    219.100      1.220      1.220 
    54.970     54.670     34.410     31.120     92.910      0.000      0.000 
     0.000      0.000      0.000      0.000      0.000     24.000      1.260 
     0.000      4.000      3.333     10.000      0.325      0.422      0.137 
    45.701 -32768.000 -32768.000 -32768.000 -32768.000 -32768.000 -32768.000 
-32768.000 
  1718.100 
    13.700     41.350      3.665    199.855     36.185     35.805     57.455 
     1.045     40.305    148.855     11.650    219.100      1.220      1.220 
    54.980     54.670     34.405     31.120     92.830      0.000      0.000 
     0.000      0.000      0.000      0.000      0.000     24.000      1.260 
     0.000      4.000      3.333     10.000      0.325      0.422      0.137 
    46.476 -32768.000 -32768.000 -32768.000 -32768.000 -32768.000 -32768.000 
-32768.000 
  1718.200 
    13.600     41.500      3.520    197.700     36.190     35.810     58.400 
     1.030     40.420    148.980     11.500    219.100      1.220      1.220 
    54.990     54.670     34.400     31.120     92.750      0.000      0.000 
     0.000      0.000      0.000      0.000      0.000     24.000      1.260 
     0.000      4.000      3.333     10.000      0.325      0.422      0.137 
    47.251 -32768.000 -32768.000 -32768.000 -32768.000 -32768.000 -32768.000 
-32768.000 
  1718.300 
    13.500     41.250      3.750    195.845     36.185     35.805     57.455 
     1.045     40.280    148.840     11.600    219.100      1.220      1.220 
    54.985     54.670     34.400     31.120     92.800      0.000      0.000 
     0.000      0.000      0.000      0.000      0.000     24.000      1.260 
     0.000      4.000      3.333     10.000      0.325      0.422      0.137 
    46.162 -32768.000 -32768.000 -32768.000 -32768.000 -32768.000 -32768.000 
-32768.000 
  1718.400 
    13.400     41.000      3.980    193.990     36.180     35.800     56.510 
     1.060     40.140    148.700     11.700    219.100      1.220      1.220 
    54.980     54.670     34.400     31.120     92.850      0.000      0.000 
     0.000      0.000      0.000      0.000      0.000     24.000      1.260 
     0.000      4.000      3.333     10.000      0.325      0.422      0.137 
    45.073 -32768.000 -32768.000 -32768.000 -32768.000 -32768.000 -32768.000 
-32768.000 
  1718.500 
    13.300     41.100      3.905    196.505     36.180     35.800     56.320 
     1.065     40.160    148.715     11.600    219.100      1.220      1.220 
    54.985     54.670     34.405     31.120     92.865      0.000      0.000 
     0.000      0.000      0.000      0.000      0.000     24.000      1.260 
     0.000      4.000      3.333     10.000      0.325      0.422      0.137 
    45.281 -32768.000 -32768.000 -32768.000 -32768.000 -32768.000 -32768.000 
-32768.000 
  1718.600 
    13.200     41.200      3.830    199.020     36.180     35.800     56.130 
     1.070     40.180    148.730     11.500    219.100      1.220      1.220 
    54.990     54.670     34.410     31.120     92.880      0.000      0.000 
     0.000      0.000      0.000      0.000      0.000     24.000      1.260 
     0.000      4.000      3.333     10.000      0.325      0.422      0.137 
    45.489 -32768.000 -32768.000 -32768.000 -32768.000 -32768.000 -32768.000 
-32768.000 
  1718.700 
    13.100     40.950      4.075    200.950     36.185     35.805     57.665 
     1.040     40.150    148.710     11.400    219.100      1.220      1.220 
    54.980     54.670     34.410     31.120     92.925      0.000      0.000 
     0.000      0.000      0.000      0.000      0.000     24.000      1.260 
     0.000      4.000      3.333     10.000      0.325      0.422      0.137 
    45.039 -32768.000 -32768.000 -32768.000 -32768.000 -32768.000 -32768.000 
-32768.000 
  1718.800 
    13.000     40.700      4.320    202.880     36.190     35.810     59.200 
     1.010     40.120    148.690     11.300    219.100      1.220      1.220 
    54.970     54.670     34.410     31.120     92.970      0.000      0.000 
     0.000      0.000      0.000      0.000      0.000     24.000      1.260 
     0.000      4.000      3.333     10.000      0.325      0.422      0.137 
    44.590 -32768.000 -32768.000 -32768.000 -32768.000 -32768.000 -32768.000 
-32768.000 
  1718.900 
    12.900     40.350      4.665    202.710     36.185     35.805     58.040 
     1.030     40.250    148.805     11.150    219.100      1.220      1.220 
    54.965     54.670     34.405     31.120     92.910      0.000      0.000 
     0.000      0.000      0.000      0.000      0.000     24.000      1.260 
     0.000      4.000      3.333     10.000      0.325      0.422      0.137 
    43.257 -32768.000 -32768.000 -32768.000 -32768.000 -32768.000 -32768.000 
-32768.000 
  1719.000 
    12.800     40.000      5.010    202.540     36.180     35.800     56.880 
     1.050     40.380    148.920     11.000    219.100      1.220      1.220 
    54.960     54.670     34.400     31.120     92.850      0.000      0.000 
     0.000      0.000      0.000      0.000      0.000     24.000      1.260 
     0.000      4.000      3.333     10.000      0.325      0.422      0.137 
    41.924 -32768.000 -32768.000 -32768.000 -32768.000 -32768.000 -32768.000 
-32768.000 
