~Version Information
#-------------------
VERS.        2.0: CWLS log ASCII Standart - VERSION 2.0
WRAP.        YES: Multiple lines per depth step
~Well Information Block
#----------------------
#MNEM.UNIT  VALUE: DESCRIPTION
#----.---- -------: -------------
STRT.м                  34.4: Начальная глубина
STOP.м                  3192: Конечная глубина
STEP.м                   0.1: Шаг квантования
NULL.              -32768.00: Код отсутствия
COMP.            LUKOIL-KOMI: Название организации
WELL.                    207: Наименование скважины
FLD .       YAREIUSKOE FIELD: Наименование площади
LOC .                    NAO: Расположение скважины
CTRY.                 RUSSIA: Название страны
SRVC.                   PNGG: Наим.орг-ции, проводившей каротаж
DATE.             01.02.2020: Дата регистрации каротажных данных
UWI .                      0: Уникальный идентификатор скважины
~Parameter Information
#---------------------
#MNEM.UNIT         VALUE: DESCRIPTION
#----.----       -------: ---------------
~Curve Information Block
#-----------------------
#MNEM  .UNIT          : CURVE DESCRIPTION
#------.----          : -----------------
DEPT     .m             : Колонка глубины
Hk       .m             : Положение крюка
Wk       .t             : Вес инструмента на крюке
Wd       .t             : Нагрузка на долото
Pin      .atm           : Давление на входе
Qin      .c3/s          : Расход промывочной жидкости на входе
Qout      .c3/s         : Расход промывочной жидкости на выходе
Vmex     .m/h           : Скорость бурения
DMK      .min/m         : Время бурения 1 метра
Np       .ob/min        : Частота оборотов ротора
Nd       .ob/min        : Частота оборотов долота
Mp       .OE            : Крутящий момент на роторе
Dd       .mm            : Диаметр долота
Yin      .g/c3          : Плотность раствора на входе в скважину
Yout     .g/c3          : Плотность раствора на выходе из скважины
Xn1      .h/min         : Ходы насоса 1
Xn2      .h/min         : Ходы насоса 2
Tin      .°С            : Температура раствора на входе
Tout     .°С            : Температура раствора на выходе
Vemk     .m3            : Общий объем раствора в емкостях
C1       .%             : Содержание метана
C2       .%             : Содержание этана
C3       .%             : Содержание пропана
C4       .%             : Содержание бутана
C5       .%             : Содержание пентана
Сuv      .%             : Сумма компонентов углеводородов
Кgazkontr.UE            : Коэффмциент газовой контр.
Lit      .OE            : Литологический код породы
Yn       .g/c3          : Эквивалентная плотность раствора
Cuvp     .c3/d3         : Приведенная сумма компонентов углеводородов в растворе
Wh       .UE            : Газовые коэффициенты
Bh       .UE            : Газовые коэффициенты
Ch       .UE            : Газовые коэффициенты
OPUS3    .UE            : Газовые коэффициенты
OPUS3_1  .UE            : Газовые коэффициенты
OPUS3_2  .UE            : Газовые коэффициенты
BurPor   .UE            : Буровая пористость
TOP      .m             : Кровля пласта
BOTM     .m             : Подошва пласта
DTH      .m             : Толщина пласта
TOPA     .m             : Абсолютные отметки кровли пластов
BTMA     .m             : Абсолютные отметки подошв пластов
RDTH     .m             : Приведенная толщина пластов
COLL     .UE            : Признак коллектора
~Other Information
#-----------------
~Ascii Log Data
# ...
  1295.800 
    22.866     37.468      4.032    164.895     35.863     35.483     49.294 
     1.217     18.135    125.722      9.942    219.100      1.220      1.220 
    54.988     53.673     31.281     28.892     49.955      0.086      0.004 
     0.000      0.000      0.000      0.090      0.644     24.000      1.260 
     0.010      0.228   4411.765    505.000     27.936 145267.357 4058193.28 
    45.315 -32768.000 -32768.000 -32768.000 -32768.000 -32768.000 -32768.000 
-32768.000 
  1295.900 
    22.768     37.460      4.040    168.400     35.864     35.484     48.166 
     1.247     18.075    125.667      9.981    219.100      1.220      1.220 
    54.986     53.673     31.283     28.890     49.987      0.086      0.004 
     0.000      0.000      0.000      0.090      0.644     24.000      1.260 
     0.010      0.228   4411.765    505.000     27.936 145267.357 4058193.28 
    44.952 -32768.000 -32768.000 -32768.000 -32768.000 -32768.000 -32768.000 
-32768.000 
  1296.000 
    22.670     37.452      4.048    171.904     35.866     35.486     47.038 
     1.276     18.015    125.612     10.019    219.100      1.220      1.220 
    54.984     53.673     31.285     28.889     50.020      0.086      0.004 
     0.000      0.000      0.000      0.090      0.644     24.000      1.260 
     0.010      0.228   4411.765    505.000     27.936 145267.357 4058193.28 
    44.589 -32768.000 -32768.000 -32768.000 -32768.000 -32768.000 -32768.000 
-32768.000 
  1296.100 
    22.570     37.758      3.742    168.229     35.865     35.485     47.682 
     1.259     18.051    125.646     10.119    219.100      1.220      1.220 
    54.983     53.673     31.287     28.887     50.015      0.086      0.004 
     0.000      0.000      0.000      0.090      0.644     24.000      1.260 
     0.010      0.228   4411.765    505.000     27.936 145267.357 4058193.28 
    45.972 -32768.000 -32768.000 -32768.000 -32768.000 -32768.000 -32768.000 
-32768.000 
  1296.200 
    22.469     38.064      3.436    164.554     35.864     35.484     48.327 
     1.242     18.087    125.680     10.219    219.100      1.220      1.220 
    54.983     53.673     31.289     28.886     50.010      0.086      0.004 
     0.000      0.000      0.000      0.090      0.644     24.000      1.260 
     0.010      0.228   4411.765    505.000     27.936 145267.357 4058193.28 
    47.355 -32768.000 -32768.000 -32768.000 -32768.000 -32768.000 -32768.000 
-32768.000 
  1296.300 
    22.370     37.970      3.530    167.383     35.859     35.479     47.844 
     1.254     18.067    125.644     10.095    219.100      1.220      1.220 
    54.987     53.673     31.288     28.888     49.997      0.086      0.004 
     0.000      0.000      0.000      0.090      0.644     24.000      1.260 
     0.010      0.228   4411.765    505.000     27.936 145267.357 4058193.28 
    46.824 -32768.000 -32768.000 -32768.000 -32768.000 -32768.000 -32768.000 
-32768.000 
  1296.400 
    22.271     37.876      3.624    170.212     35.854     35.474     47.361 
     1.267     18.047    125.608      9.971    219.100      1.220      1.220 
    54.991     53.673     31.288     28.890     49.984      0.086      0.004 
     0.000      0.000      0.000      0.090      0.644     24.000      1.260 
     0.010      0.228   4411.765    505.000     27.936 145267.357 4058193.28 
    46.292 -32768.000 -32768.000 -32768.000 -32768.000 -32768.000 -32768.000 
-32768.000 
  1296.500 
    22.170     38.126      3.374    166.669     35.856     35.476     48.005 
     1.250     18.052    125.621      9.851    219.100      1.220      1.220 
    54.985     53.673     31.288     28.891     49.964      0.086      0.004 
     0.000      0.000      0.000      0.090      0.644     24.000      1.260 
     0.010      0.228   4411.765    505.000     27.936 145267.357 4058193.28 
    47.582 -32768.000 -32768.000 -32768.000 -32768.000 -32768.000 -32768.000 
-32768.000 
  1296.600 
    22.069     38.375      3.125    163.127     35.858     35.478     48.649 
     1.233     18.058    125.634      9.730    219.100      1.220      1.220 
    54.979     53.673     31.289     28.892     49.943      0.086      0.004 
     0.000      0.000      0.000      0.090      0.644     24.000      1.260 
     0.010      0.228   4411.765    505.000     27.936 145267.357 4058193.28 
    48.872 -32768.000 -32768.000 -32768.000 -32768.000 -32768.000 -32768.000 
-32768.000 
  1296.700 
    21.971     38.128      3.372    165.508     35.858     35.478     47.682 
     1.259     18.096    125.672      9.749    219.100      1.220      1.220 
    54.985     53.673     31.289     28.893     49.941      0.082      0.004 
     0.000      0.000      0.000      0.086      0.615     24.000      1.260 
     0.009      0.239   4215.686    505.000     26.636 138510.736 3698245.36 
    47.491 -32768.000 -32768.000 -32768.000 -32768.000 -32768.000 -32768.000 
-32768.000 
  1296.800 
    21.874     37.882      3.618    167.888     35.859     35.479     46.716 
     1.284     18.133    125.710      9.768    219.100      1.220      1.220 
    54.991     53.673     31.289     28.894     49.938      0.078      0.004 
     0.000      0.000      0.000      0.082      0.586     24.000      1.260 
     0.009      0.250   4019.608    505.000     25.337 131754.115 3338297.45 
    46.110 -32768.000 -32768.000 -32768.000 -32768.000 -32768.000 -32768.000 
-32768.000 
  1296.900 
    21.772     38.154      3.346    165.956     35.860     35.480     47.683 
     1.258     18.145    125.726      9.727    219.100      1.220      1.220 
    54.992     53.673     31.290     28.895     49.977      0.078      0.004 
     0.000      0.000      0.000      0.082      0.586     24.000      1.260 
     0.009      0.250   4019.608    505.000     25.337 131754.115 3338297.45 
    47.607 -32768.000 -32768.000 -32768.000 -32768.000 -32768.000 -32768.000 
-32768.000 
  1297.000 
    21.671     38.426      3.074    164.024     35.861     35.481     48.649 
     1.233     18.158    125.742      9.687    219.100      1.220      1.220 
    54.992     53.673     31.291     28.897     50.017      0.078      0.004 
     0.000      0.000      0.000      0.082      0.586     24.000      1.260 
     0.009      0.250   4019.608    505.000     25.337 131754.115 3338297.45 
    49.104 -32768.000 -32768.000 -32768.000 -32768.000 -32768.000 -32768.000 
-32768.000 
  1297.100 
    21.571     38.713      2.787    165.672     35.860     35.480     48.488 
     1.237     18.157    125.737      9.599    219.100      1.220      1.220 
    54.987     53.673     31.293     28.896     49.973      0.078      0.004 
     0.000      0.000      0.000      0.082      0.586     24.000      1.260 
     0.009      0.250   4019.608    505.000     25.337 131754.115 3338297.45 
    50.606 -32768.000 -32768.000 -32768.000 -32768.000 -32768.000 -32768.000 
-32768.000 
  1297.200 
    21.470     39.000      2.500    167.320     35.859     35.479     48.327 
     1.242     18.156    125.733      9.511    219.100      1.220      1.220 
    54.982     53.673     31.294     28.895     49.928      0.078      0.004 
     0.000      0.000      0.000      0.082      0.586     24.000      1.260 
     0.009      0.250   4019.608    505.000     25.337 131754.115 3338297.45 
    52.108 -32768.000 -32768.000 -32768.000 -32768.000 -32768.000 -32768.000 
-32768.000 
  1297.300 
    21.372     38.889      2.611    166.095     35.859     35.479     47.683 
     1.259     18.089    125.665      9.547    219.100      1.220      1.220 
    54.969     53.673     31.294     28.914     49.990      0.078      0.004 
     0.000      0.000      0.000      0.082      0.586     24.000      1.260 
     0.009      0.250   4019.608    505.000     25.337 131754.115 3338297.45 
    51.266 -32768.000 -32768.000 -32768.000 -32768.000 -32768.000 -32768.000 
-32768.000 
  1297.400 
    21.274     38.777      2.723    164.870     35.859     35.479     47.038 
     1.276     18.021    125.598      9.583    219.100      1.220      1.220 
    54.957     53.673     31.294     28.933     50.053      0.078      0.004 
     0.000      0.000      0.000      0.082      0.586     24.000      1.260 
     0.009      0.250   4019.608    505.000     25.337 131754.115 3338297.45 
    50.424 -32768.000 -32768.000 -32768.000 -32768.000 -32768.000 -32768.000 
-32768.000 
