~Version Information
#-------------------
VERS.        2.0: CWLS log ASCII Standart - VERSION 2.0
WRAP.        YES: Multiple lines per depth step
~Well Information Block
#----------------------
#MNEM.UNIT  VALUE: DESCRIPTION
#----.---- -------: -------------
STRT.м                  34.4: Начальная глубина
STOP.м                  3192: Конечная глубина
STEP.м                   0.1: Шаг квантования
NULL.              -32768.00: Код отсутствия
COMP.            LUKOIL-KOMI: Название организации
WELL.                    207: Наименование скважины
FLD .       YAREIUSKOE FIELD: Наименование площади
LOC .                    NAO: Расположение скважины
CTRY.                 RUSSIA: Название страны
SRVC.                   PNGG: Наим.орг-ции, проводившей каротаж
DATE.             01.02.2020: Дата регистрации каротажных данных
UWI .                      0: Уникальный идентификатор скважины
~Parameter Information
#---------------------
#MNEM.UNIT         VALUE: DESCRIPTION
#----.----       -------: ---------------
~Curve Information Block
#-----------------------
#MNEM  .UNIT          : CURVE DESCRIPTION
#------.----          : -----------------
DEPT     .m             : Колонка глубины
Hk       .m             : Положение крюка
Wk       .t             : Вес инструмента на крюке
Wd       .t             : Нагрузка на долото
Pin      .atm           : Давление на входе
Qin      .c3/s          : Расход промывочной жидкости на входе
Qout      .c3/s         : Расход промывочной жидкости на выходе
Vmex     .m/h           : Скорость бурения
DMK      .min/m         : Время бурения 1 метра
Np       .ob/min        : Частота оборотов ротора
Nd       .ob/min        : Частота оборотов долота
Mp       .OE            : Крутящий момент на роторе
Dd       .mm            : Диаметр долота
Yin      .g/c3          : Плотность раствора на входе в скважину
Yout     .g/c3          : Плотность раствора на выходе из скважины
Xn1      .h/min         : Ходы насоса 1
Xn2      .h/min         : Ходы насоса 2
Tin      .°С            : Температура раствора на входе
Tout     .°С            : Температура раствора на выходе
Vemk     .m3            : Общий объем раствора в емкостях
C1       .%             : Содержание метана
C2       .%             : Содержание этана
C3       .%             : Содержание пропана
C4       .%             : Содержание бутана
C5       .%             : Содержание пентана
Сuv      .%             : Сумма компонентов углеводородов
Кgazkontr.UE            : Коэффмциент газовой контр.
Lit      .OE            : Литологический код породы
Yn       .g/c3          : Эквивалентная плотность раствора
Cuvp     .c3/d3         : Приведенная сумма компонентов углеводородов в растворе
Wh       .UE            : Газовые коэффициенты
Bh       .UE            : Газовые коэффициенты
Ch       .UE            : Газовые коэффициенты
OPUS3    .UE            : Газовые коэффициенты
OPUS3_1  .UE            : Газовые коэффициенты
OPUS3_2  .UE            : Газовые коэффициенты
BurPor   .UE            : Буровая пористость
TOP      .m             : Кровля пласта
BOTM     .m             : Подошва пласта
DTH      .m             : Толщина пласта
TOPA     .m             : Абсолютные отметки кровли пластов
BTMA     .m             : Абсолютные отметки подошв пластов
RDTH     .m             : Приведенная толщина пластов
COLL     .UE            : Признак коллектора
~Other Information
#-----------------
~Ascii Log Data
    34.400 
    23.900      5.600      0.850      2.000      7.900      7.520     10.380 
     3.540     29.870     29.870      3.500    393.700      1.142      1.142 
    12.010     11.950     32.610     33.300     85.480      0.004      0.000 
     0.000      0.000      0.000      0.004      0.030 -32768.000      1.182 
     0.000      0.241   7000.000     10.000     25.742   6692.904 172288.304 
    82.370   2800.000   2815.200     15.200  -1887.700  -1896.682      8.982 
     0.000 
    34.500 
    23.800      5.400      0.765      1.920      7.900      7.520     10.380 
     4.660     29.870     29.870      2.850    393.700      1.142      1.142 
    12.010     11.950     33.640     34.450     93.470      0.004      0.000 
     0.000      0.000      0.000      0.004      0.030 -32768.000      1.182 
     0.000      0.241   7000.000     10.000     25.742   6692.904 172288.304 
    80.457   2815.200   2828.000     12.800  -1896.682  -1904.132      7.450 
   122.000 
    34.600 
    23.700      5.200      0.680      1.840      7.900      7.520     10.380 
     5.780     29.870     29.870      2.200    393.700      1.142      1.142 
    12.010     11.950     34.670     35.600    101.460      0.004      0.000 
     0.000      0.000      0.000      0.004      0.030 -32768.000      1.182 
     0.000      0.241   7000.000     10.000     25.742   6692.904 172288.304 
    78.543   2828.000   2962.200    134.200  -1904.132  -1981.104     76.972 
     0.000 
    34.700 
    23.600      5.250      0.675      1.815      7.900      7.520     16.570 
     4.210     29.840     29.840      2.200    393.700      1.142      1.142 
    12.005     11.965     34.675     35.600    101.460      0.004      0.000 
     0.000      0.000      0.000      0.004      0.029 -32768.000      1.182 
     0.000      0.183   6916.667     10.000     38.359   6659.852 255046.058 
    84.030   2962.200   2973.000     10.800  -1981.104  -1987.357      6.253 
   121.000 
    34.800 
    23.500      5.300      0.670      1.790      7.900      7.520     22.760 
     2.640     29.810     29.810      2.200    393.700      1.142      1.142 
    12.000     11.980     34.680     35.600    101.460      0.004      0.000 
     0.000      0.000      0.000      0.004      0.029 -32768.000      1.182 
     0.000      0.126   6833.333     10.000     50.975   6626.801 337803.811 
    89.516   2973.000   2975.200      2.200  -1987.357  -1988.631      1.274 
     0.000 
    34.900 
    23.400      5.250      0.755      1.845      8.615      8.235     22.780 
     2.635     29.785     29.785      2.150    393.700      1.142      1.142 
    13.545     13.935     34.675     35.600    101.460      0.004      0.000 
     0.000      0.000      0.000      0.004      0.029 -32768.000      1.182 
     0.000      0.126   6833.333     10.000     50.975   6626.801 337803.811 
    88.082   2975.200   2976.600      1.400  -1988.631  -1989.441      0.810 
   121.000 
    35.000 
    23.300      5.200      0.840      1.900      9.330      8.950     22.800 
     2.630     29.760     29.760      2.100    393.700      1.142      1.142 
    15.090     15.890     34.670     35.600    101.460      0.004      0.000 
     0.000      0.000      0.000      0.004      0.029 -32768.000      1.182 
     0.000      0.126   6833.333     10.000     50.975   6626.801 337803.811 
    86.647   2976.600   2997.400     20.800  -1989.441  -2001.363     11.922 
     0.000 
    35.100 
    23.200      5.300      0.845      1.900      9.900      9.520     22.780 
     2.635     29.825     29.825      2.150    393.700      1.142      1.142 
    15.545     15.915     34.670     35.600    101.495      0.004      0.000 
     0.000      0.000      0.000      0.004      0.029 -32768.000      1.182 
     0.000      0.126   6833.333     10.000     50.975   6626.801 337803.811 
    86.514   2997.400   3007.400     10.000  -2001.363  -2007.014      5.651 
   121.000 
    35.200 
    23.100      5.400      0.850      1.900     10.470     10.090     22.760 
     2.640     29.890     29.890      2.200    393.700      1.142      1.142 
    16.000     15.940     34.670     35.600    101.530      0.004      0.000 
     0.000      0.000      0.000      0.004      0.029 -32768.000      1.182 
     0.000      0.126   6833.333     10.000     50.975   6626.801 337803.811 
    86.381   3007.400   3012.600      5.200  -2007.014  -2009.944      2.930 
     0.000 
    35.300 
    23.000      5.250      0.955      1.900     11.490     11.110     22.860 
     2.625     29.845     29.845      2.200    393.700      1.142      1.142 
    18.190     19.185     34.670     35.600    101.495      0.004      0.001 
     0.000      0.000      0.000      0.004      0.029 -32768.000      1.182 
     0.000      0.777   3440.358   1005.000     27.919   5842.075 181198.433 
    84.978   3012.600   3019.000      6.400  -2009.944  -2013.547      3.603 
   121.000 
    35.400 
    22.900      5.100      1.060      1.900     12.510     12.130     22.960 
     2.610     29.800     29.800      2.200    393.700      1.142      1.142 
    20.380     22.430     34.670     35.600    101.460      0.003      0.001 
     0.000      0.000      0.000      0.004      0.030 -32768.000      1.182 
     0.000      1.429     47.382   2000.000      4.863   5057.349  24593.054 
    83.575   3019.000   3058.200     39.200  -2013.547  -2035.643     22.096 
     0.000 
    35.500 
    22.800      5.200      0.975      1.990     13.740     13.360     22.860 
     2.625     29.820     29.820      2.150    393.700      1.142      1.142 
    21.680     22.645     34.670     35.600    101.440      0.003      0.001 
     0.000      0.000      0.000      0.004      0.030 -32768.000      1.182 
     0.000      1.429     47.382   2000.000      4.863   5057.349  24593.054 
    84.681   3058.200   3061.200      3.000  -2035.643  -2037.338      1.695 
   122.000 
    35.600 
    22.700      5.300      0.890      2.080     14.970     14.590     22.760 
     2.640     29.840     29.840      2.100    393.700      1.142      1.142 
    22.980     22.860     34.670     35.600    101.420      0.003      0.001 
     0.000      0.000      0.000      0.004      0.030 -32768.000      1.182 
     0.000      1.429     47.382   2000.000      4.863   5057.349  24593.054 
    85.787   3061.200   3192.000    130.800  -2037.338 -32768.000 -32768.000 
     0.000 
    35.700 
    22.600      5.300      0.900      2.455     15.700     15.320     22.780 
     2.635     29.835     29.835      2.100    393.700      1.142      1.142 
    24.370     25.810     34.665     35.600    101.425      0.003      0.001 
     0.000      0.000      0.000      0.004      0.030 -32768.000      1.182 
     0.000      1.429     47.382   2000.000      4.863   5057.349  24593.054 
    85.665 -32768.000 -32768.000 -32768.000 -32768.000 -32768.000 -32768.000 
-32768.000 
    35.800 
    22.500      5.300      0.910      2.830     16.430     16.050     22.800 
     2.630     29.830     29.830      2.100    393.700      1.142      1.142 
    25.760     28.760     34.660     35.600    101.430      0.003      0.001 
     0.000      0.000      0.000      0.004      0.030 -32768.000      1.182 
     0.000      1.429     47.382   2000.000      4.863   5057.349  24593.054 
    85.543 -32768.000 -32768.000 -32768.000 -32768.000 -32768.000 -32768.000 
-32768.000 
    35.900 
    22.400      5.400      0.805      4.095     18.205     17.825     22.780 
     2.635     29.790     29.790      2.100    393.700      1.142      1.142 
    28.335     29.750     34.660     35.600    101.415      0.003      0.001 
     0.000      0.000      0.000      0.004      0.030 -32768.000      1.182 
     0.000      1.429     47.382   2000.000      4.863   5057.349  24593.054 
    87.263 -32768.000 -32768.000 -32768.000 -32768.000 -32768.000 -32768.000 
-32768.000 
    36.000 
    22.300      5.500      0.700      5.360     19.980     19.600     22.760 
     2.640     29.750     29.750      2.100    393.700      1.142      1.142 
    30.910     30.740     34.660     35.600    101.400      0.003      0.001 
     0.000      0.000      0.000      0.004      0.030 -32768.000      1.182 
     0.000      1.429     47.382   2000.000      4.863   5057.349  24593.054 
    88.983 -32768.000 -32768.000 -32768.000 -32768.000 -32768.000 -32768.000 
-32768.000 
