~Version Information
#-------------------
VERS.        2.0: CWLS log ASCII Standart - VERSION 2.0
WRAP.        YES: Multiple lines per depth step
~Well Information Block
#----------------------
#MNEM.UNIT  VALUE: DESCRIPTION
#----.---- -------: -------------
STRT.м                  34.4: Начальная глубина
STOP.м                  3192: Конечная глубина
STEP.м                   0.1: Шаг квантования
NULL.              -32768.00: Код отсутствия
COMP.            LUKOIL-KOMI: Название организации
WELL.                    207: Наименование скважины
FLD .       YAREIUSKOE FIELD: Наименование площади
LOC .                    NAO: Расположение скважины
CTRY.                 RUSSIA: Название страны
SRVC.                   PNGG: Наим.орг-ции, проводившей каротаж
DATE.             01.02.2020: Дата регистрации каротажных данных
UWI .                      0: Уникальный идентификатор скважины
~Parameter Information
#---------------------
#MNEM.UNIT         VALUE: DESCRIPTION
#----.----       -------: ---------------
~Curve Information Block
#-----------------------
#MNEM  .UNIT          : CURVE DESCRIPTION
#------.----          : -----------------
DEPT     .m             : Колонка глубины
Hk       .m             : Положение крюка
Wk       .t             : Вес инструмента на крюке
Wd       .t             : Нагрузка на долото
Pin      .atm           : Давление на входе
Qin      .c3/s          : Расход промывочной жидкости на входе
Qout      .c3/s         : Расход промывочной жидкости на выходе
Vmex     .m/h           : Скорость бурения
DMK      .min/m         : Время бурения 1 метра
Np       .ob/min        : Частота оборотов ротора
Nd       .ob/min        : Частота оборотов долота
Mp       .OE            : Крутящий момент на роторе
Dd       .mm            : Диаметр долота
Yin      .g/c3          : Плотность раствора на входе в скважину
Yout     .g/c3          : Плотность раствора на выходе из скважины
Xn1      .h/min         : Ходы насоса 1
Xn2      .h/min         : Ходы насоса 2
Tin      .°С            : Температура раствора на входе
Tout     .°С            : Температура раствора на выходе
Vemk     .m3            : Общий объем раствора в емкостях
C1       .%             : Содержание метана
C2       .%             : Содержание этана
C3       .%             : Содержание пропана
C4       .%             : Содержание бутана
C5       .%             : Содержание пентана
Сuv      .%             : Сумма компонентов углеводородов
Кgazkontr.UE            : Коэффмциент газовой контр.
Lit      .OE            : Литологический код породы
Yn       .g/c3          : Эквивалентная плотность раствора
Cuvp     .c3/d3         : Приведенная сумма компонентов углеводородов в растворе
Wh       .UE            : Газовые коэффициенты
Bh       .UE            : Газовые коэффициенты
Ch       .UE            : Газовые коэффициенты
OPUS3    .UE            : Газовые коэффициенты
OPUS3_1  .UE            : Газовые коэффициенты
OPUS3_2  .UE            : Газовые коэффициенты
BurPor   .UE            : Буровая пористость
TOP      .m             : Кровля пласта
BOTM     .m             : Подошва пласта
DTH      .m             : Толщина пласта
TOPA     .m             : Абсолютные отметки кровли пластов
BTMA     .m             : Абсолютные отметки подошв пластов
RDTH     .m             : Приведенная толщина пластов
COLL     .UE            : Признак коллектора
~Other Information
#-----------------
~Ascii Log Data
# ...
  2769.700 
    28.708     55.255      7.541    180.500     35.920     35.538     29.405 
     2.054     44.315    107.760     26.065    219.100      1.243      1.246 
    64.820     64.820     34.270     38.825     76.545      0.071      0.002 
     0.000      0.001      0.001      0.074      0.526     23.000      1.283 
     0.014      0.212    223.533     31.441     50.045    399.281  20331.800 
    32.388 -32768.000 -32768.000 -32768.000 -32768.000 -32768.000 -32768.000 
-32768.000 
  2769.800 
    28.606     55.230      7.783    182.000     35.920     35.538     31.760 
     1.889     43.970    107.760     26.200    219.100      1.243      1.246 
    64.820     64.820     34.270     38.820     76.600      0.070      0.001 
     0.000      0.000      0.001      0.072      0.517     23.000      1.283 
     0.012      0.169    246.186     31.974     63.724    424.829  27071.973 
    32.966 -32768.000 -32768.000 -32768.000 -32768.000 -32768.000 -32768.000 
-32768.000 
  2769.900 
    28.505     55.100      7.829    182.000     35.920     35.538     29.405 
     2.054     44.070    107.760     26.085    219.100      1.243      1.246 
    64.835     64.835     34.280     38.800     76.615      0.070      0.001 
     0.000      0.000      0.001      0.072      0.517     23.000      1.283 
     0.013      0.169    246.186     31.974     63.724    424.829  27071.973 
    31.942 -32768.000 -32768.000 -32768.000 -32768.000 -32768.000 -32768.000 
-32768.000 
  2770.000 
    28.403     54.970      7.874    182.000     35.920     35.538     27.050 
     2.218     44.170    107.760     25.970    219.100      1.243      1.246 
    64.850     64.850     34.290     38.780     76.630      0.070      0.001 
     0.000      0.000      0.001      0.072      0.517     23.000      1.283 
     0.014      0.169    246.186     31.974     63.724    424.829  27071.973 
    30.919 -32768.000 -32768.000 -32768.000 -32768.000 -32768.000 -32768.000 
-32768.000 
  2770.100 
    28.302     55.020      7.846    182.000     35.920     35.538     29.405 
     2.054     44.260    107.760     26.040    219.100      1.243      1.246 
    64.850     64.845     34.295     38.730     76.640      0.070      0.001 
     0.000      0.000      0.001      0.072      0.517     23.000      1.283 
     0.013      0.169    246.186     31.974     63.724    424.829  27071.973 
    31.915 -32768.000 -32768.000 -32768.000 -32768.000 -32768.000 -32768.000 
-32768.000 
  2770.200 
    28.200     55.070      7.819    182.000     35.920     35.538     31.760 
     1.889     44.350    107.760     26.110    219.100      1.243      1.246 
    64.850     64.840     34.300     38.680     76.650      0.070      0.001 
     0.000      0.000      0.001      0.072      0.517     23.000      1.283 
     0.012      0.169    246.186     31.974     63.724    424.829  27071.973 
    32.910 -32768.000 -32768.000 -32768.000 -32768.000 -32768.000 -32768.000 
-32768.000 
  2770.300 
    28.098     55.080      7.834    182.000     35.920     35.538     29.925 
     2.013     44.210    107.760     25.990    219.100      1.243      1.246 
    64.845     64.845     34.260     38.780     76.615      0.069      0.001 
     0.000      0.000      0.001      0.072      0.514     23.000      1.283 
     0.013      0.174    235.778     33.814     63.480    427.618  27144.724 
    32.154 -32768.000 -32768.000 -32768.000 -32768.000 -32768.000 -32768.000 
-32768.000 
  2770.400 
    27.997     55.090      7.848    182.000     35.920     35.538     28.090 
     2.136     44.070    107.760     25.870    219.100      1.243      1.246 
    64.840     64.850     34.220     38.880     76.580      0.069      0.001 
     0.000      0.000      0.001      0.072      0.511     23.000      1.283 
     0.014      0.178    225.370     35.654     63.237    430.407  27217.475 
    31.398 -32768.000 -32768.000 -32768.000 -32768.000 -32768.000 -32768.000 
-32768.000 
  2770.500 
    27.895     55.005      7.971    181.500     35.920     35.538     29.260 
     2.054     44.125    107.760     25.825    219.100      1.243      1.246 
    64.830     64.835     34.155     38.800     76.585      0.069      0.001 
     0.000      0.001      0.001      0.071      0.508     23.000      1.283 
     0.013      0.189    207.726     40.396     63.309    442.812  28034.532 
    31.691 -32768.000 -32768.000 -32768.000 -32768.000 -32768.000 -32768.000 
-32768.000 
  2770.600 
    27.794     54.920      8.095    181.000     35.920     35.538     30.430 
     1.971     44.180    107.760     25.780    219.100      1.243      1.246 
    64.820     64.820     34.090     38.720     76.590      0.068      0.001 
     0.000      0.001      0.001      0.071      0.506     23.000      1.283 
     0.013      0.199    190.083     45.138     63.380    455.216  28851.588 
    31.983 -32768.000 -32768.000 -32768.000 -32768.000 -32768.000 -32768.000 
-32768.000 
  2770.700 
    27.693     54.960      8.055    181.500     35.920     35.538     29.260 
     2.053     44.390    107.760     25.225    219.100      1.243      1.246 
    64.835     64.820     34.025     38.665     76.630      0.068      0.001 
     0.000      0.001      0.001      0.071      0.506     23.000      1.283 
     0.013      0.199    190.083     45.138     63.380    455.216  28851.588 
    31.568 -32768.000 -32768.000 -32768.000 -32768.000 -32768.000 -32768.000 
-32768.000 
  2770.800 
    27.591     55.000      8.014    182.000     35.920     35.538     28.090 
     2.136     44.600    107.760     24.670    219.100      1.243      1.246 
    64.850     64.820     33.960     38.610     76.670      0.068      0.001 
     0.000      0.001      0.001      0.071      0.506     23.000      1.283 
     0.014      0.199    190.083     45.138     63.380    455.216  28851.588 
    31.153 -32768.000 -32768.000 -32768.000 -32768.000 -32768.000 -32768.000 
-32768.000 
  2770.900 
    27.497     54.920      8.132    182.000     35.925     35.543     26.085 
     2.314     44.350    107.775     25.185    219.100      1.243      1.246 
    64.875     64.850     33.900     37.945     76.700      0.068      0.001 
     0.000      0.001      0.001      0.071      0.506     23.000      1.283 
     0.015      0.199    190.083     45.138     63.380    455.216  28851.588 
    30.105 -32768.000 -32768.000 -32768.000 -32768.000 -32768.000 -32768.000 
-32768.000 
  2771.000 
    27.403     54.840      8.249    182.000     35.930     35.548     24.080 
     2.492     44.100    107.790     25.700    219.100      1.243      1.246 
    64.900     64.880     33.840     37.280     76.730      0.068      0.001 
     0.000      0.001      0.001      0.071      0.506     23.000      1.283 
     0.016      0.199    190.083     45.138     63.380    455.216  28851.588 
    29.058 -32768.000 -32768.000 -32768.000 -32768.000 -32768.000 -32768.000 
-32768.000 
  2771.100 
    27.308     54.885      8.242    181.000     35.925     35.543     23.820 
     2.519     44.220    107.775     25.425    219.100      1.243      1.246 
    64.870     64.865     33.790     37.250     76.730      0.070      0.002 
     0.000      0.001      0.001      0.074      0.527     23.000      1.283 
     0.017      0.222    201.757     41.496     51.209    475.161  24089.585 
    28.950 -32768.000 -32768.000 -32768.000 -32768.000 -32768.000 -32768.000 
-32768.000 
  2771.200 
    27.214     54.930      8.236    180.000     35.920     35.538     23.560 
     2.546     44.340    107.760     25.150    219.100      1.243      1.245 
    64.840     64.850     33.740     37.220     76.730      0.073      0.002 
     0.000      0.001      0.001      0.077      0.548     23.000      1.283 
     0.018      0.245    213.432     37.854     39.037    495.106  19327.582 
    28.841 -32768.000 -32768.000 -32768.000 -32768.000 -32768.000 -32768.000 
-32768.000 
  2771.300 
    27.113     54.865      8.214    181.000     35.920     35.538     25.305 
     2.382     44.440    107.760     25.235    219.100      1.243      1.245 
    64.820     64.845     33.705     38.020     76.740      0.075      0.002 
     0.000      0.001      0.001      0.079      0.559     23.000      1.283 
     0.017      0.239    220.154     36.050     39.584    485.769  19223.483 
    29.650 -32768.000 -32768.000 -32768.000 -32768.000 -32768.000 -32768.000 
-32768.000 
