~Version Information
#-------------------
VERS.        2.0: CWLS log ASCII Standart - VERSION 2.0
WRAP.        YES: Multiple lines per depth step
~Well Information Block
#----------------------
#MNEM.UNIT  VALUE: DESCRIPTION
#----.---- -------: -------------
STRT.м                  34.4: Начальная глубина
STOP.м                  3192: Конечная глубина
STEP.м                   0.1: Шаг квантования
NULL.              -32768.00: Код отсутствия
COMP.            LUKOIL-KOMI: Название организации
WELL.                    207: Наименование скважины
FLD .       YAREIUSKOE FIELD: Наименование площади
LOC .                    NAO: Расположение скважины
CTRY.                 RUSSIA: Название страны
SRVC.                   PNGG: Наим.орг-ции, проводившей каротаж
DATE.             01.02.2020: Дата регистрации каротажных данных
UWI .                      0: Уникальный идентификатор скважины
~Parameter Information
#---------------------
#MNEM.UNIT         VALUE: DESCRIPTION
#----.----       -------: ---------------
~Curve Information Block
#-----------------------
#MNEM  .UNIT          : CURVE DESCRIPTION
#------.----          : -----------------
DEPT     .m             : Колонка глубины
Hk       .m             : Положение крюка
Wk       .t             : Вес инструмента на крюке
Wd       .t             : Нагрузка на долото
Pin      .atm           : Давление на входе
Qin      .c3/s          : Расход промывочной жидкости на входе
Qout      .c3/s         : Расход промывочной жидкости на выходе
Vmex     .m/h           : Скорость бурения
DMK      .min/m         : Время бурения 1 метра
Np       .ob/min        : Частота оборотов ротора
Nd       .ob/min        : Частота оборотов долота
Mp       .OE            : Крутящий момент на роторе
Dd       .mm            : Диаметр долота
Yin      .g/c3          : Плотность раствора на входе в скважину
Yout     .g/c3          : Плотность раствора на выходе из скважины
Xn1      .h/min         : Ходы насоса 1
Xn2      .h/min         : Ходы насоса 2
Tin      .°С            : Температура раствора на входе
Tout     .°С            : Температура раствора на выходе
Vemk     .m3            : Общий объем раствора в емкостях
C1       .%             : Содержание метана
C2       .%             : Содержание этана
C3       .%             : Содержание пропана
C4       .%             : Содержание бутана
C5       .%             : Содержание пентана
Сuv      .%             : Сумма компонентов углеводородов
Кgazkontr.UE            : Коэффмциент газовой контр.
Lit      .OE            : Литологический код породы
Yn       .g/c3          : Эквивалентная плотность раствора
Cuvp     .c3/d3         : Приведенная сумма компонентов углеводородов в растворе
Wh       .UE            : Газовые коэффициенты
Bh       .UE            : Газовые коэффициенты
Ch       .UE            : Газовые коэффициенты
OPUS3    .UE            : Газовые коэффициенты
OPUS3_1  .UE            : Газовые коэффициенты
OPUS3_2  .UE            : Газовые коэффициенты
BurPor   .UE            : Буровая пористость
TOP      .m             : Кровля пласта
BOTM     .m             : Подошва пласта
DTH      .m             : Толщина пласта
TOPA     .m             : Абсолютные отметки кровли пластов
BTMA     .m             : Абсолютные отметки подошв пластов
RDTH     .m             : Приведенная толщина пластов
COLL     .UE            : Признак коллектора
~Other Information
#-----------------
~Ascii Log Data
# ...
  2137.300 
    27.440     39.885     12.115    192.515     36.010     35.630     17.415 
     3.450     40.330    148.365     14.695    219.100      1.230      1.230 
    65.020     64.510     38.985     36.450    112.340      0.225      0.009 
     0.000      0.000      0.000      0.234      1.678     23.000      1.270 
     0.073      0.211   2923.940      1.683     28.883   1191.217  34512.003 
    19.083 -32768.000 -32768.000 -32768.000 -32768.000 -32768.000 -32768.000 
-32768.000 
  2137.400 
    27.340     39.840     12.160    190.720     36.010     35.630     18.030 
     3.330     40.260    148.290     14.400    219.100      1.230      1.230 
    65.040     64.510     38.980     36.450    112.340      0.206      0.009 
     0.000      0.000      0.000      0.215      1.539     23.000      1.270 
     0.065      0.218   2680.798      1.683     27.867   1086.805  30285.795 
    19.338 -32768.000 -32768.000 -32768.000 -32768.000 -32768.000 -32768.000 
-32768.000 
  2137.500 
    27.240     39.650     12.350    193.490     36.010     35.630     18.750 
     3.205     40.250    148.280     14.490    219.100      1.230      1.230 
    65.020     64.510     38.980     36.455    112.345      0.206      0.009 
     0.000      0.000      0.000      0.215      1.539     23.000      1.270 
     0.063      0.218   2680.798      1.683     27.867   1086.805  30285.795 
    19.534 -32768.000 -32768.000 -32768.000 -32768.000 -32768.000 -32768.000 
-32768.000 
  2137.600 
    27.140     39.460     12.540    196.260     36.010     35.630     19.470 
     3.080     40.240    148.270     14.580    219.100      1.230      1.230 
    65.000     64.510     38.980     36.460    112.350      0.206      0.009 
     0.000      0.000      0.000      0.215      1.539     23.000      1.270 
     0.060      0.218   2680.798      1.683     27.867   1086.805  30285.795 
    19.729 -32768.000 -32768.000 -32768.000 -32768.000 -32768.000 -32768.000 
-32768.000 
  2137.700 
    27.040     41.100     10.900    193.810     36.015     35.635     20.020 
     3.000     40.210    148.250     14.940    219.100      1.230      1.230 
    64.990     64.510     38.980     36.455    112.335      0.193      0.009 
     0.000      0.000      0.000      0.202      1.443     23.000      1.270 
     0.055      0.220   2512.469      1.683     27.521   1014.415  27942.056 
    21.303 -32768.000 -32768.000 -32768.000 -32768.000 -32768.000 -32768.000 
-32768.000 
  2137.800 
    26.940     42.740      9.260    191.360     36.020     35.640     20.570 
     2.920     40.180    148.230     15.300    219.100      1.230      1.230 
    64.980     64.510     38.980     36.450    112.320      0.180      0.008 
     0.000      0.000      0.000      0.188      1.346     23.000      1.270 
     0.050      0.223   2344.140      1.683     27.174    942.024  25598.316 
    22.877 -32768.000 -32768.000 -32768.000 -32768.000 -32768.000 -32768.000 
-32768.000 
  2137.900 
    26.840     43.910      8.090    189.150     36.015     35.635     21.975 
     2.745     40.180    148.215     14.870    219.100      1.230      1.230 
    64.980     64.510     38.980     36.455    112.330      0.180      0.008 
     0.000      0.000      0.000      0.188      1.346     25.000      1.270 
     0.047      0.223   2344.140      1.683     27.174    942.024  25598.316 
    24.967 -32768.000 -32768.000 -32768.000 -32768.000 -32768.000 -32768.000 
-32768.000 
  2138.000 
    26.740     45.080      6.920    186.940     36.010     35.630     23.380 
     2.570     40.180    148.200     14.440    219.100      1.230      1.230 
    64.980     64.510     38.980     36.460    112.340      0.180      0.008 
     0.000      0.000      0.000      0.188      1.346     27.000      1.270 
     0.044      0.223   2344.140      1.683     27.174    942.024  25598.316 
    27.057 -32768.000 -32768.000 -32768.000 -32768.000 -32768.000 -32768.000 
-32768.000 
  2138.100 
    26.640     43.950      8.050    186.575     36.010     35.630     26.190 
     2.320     40.230    148.255     14.405    219.100      1.230      1.230 
    65.015     64.510     38.980     36.460    112.355      0.180      0.008 
     0.000      0.000      0.000      0.188      1.346     27.000      1.270 
     0.040      0.223   2344.140      1.683     27.174    942.024  25598.316 
    26.705 -32768.000 -32768.000 -32768.000 -32768.000 -32768.000 -32768.000 
-32768.000 
  2138.200 
    26.540     42.820      9.180    186.210     36.010     35.630     29.000 
     2.070     40.280    148.310     14.370    219.100      1.230      1.230 
    65.050     64.510     38.980     36.460    112.370      0.180      0.008 
     0.000      0.000      0.000      0.188      1.346     27.000      1.270 
     0.035      0.223   2344.140      1.683     27.174    942.024  25598.316 
    26.353 -32768.000 -32768.000 -32768.000 -32768.000 -32768.000 -32768.000 
-32768.000 
  2138.300 
    26.440     41.015     10.985    187.025     36.015     35.635     28.255 
     2.125     40.330    148.375     14.040    219.100      1.230      1.230 
    65.025     64.510     38.980     36.455    112.390      0.169      0.007 
     0.000      0.000      0.000      0.176      1.260     27.000      1.270 
     0.033      0.209   2194.514      1.683     29.113    874.670  25333.009 
    24.466 -32768.000 -32768.000 -32768.000 -32768.000 -32768.000 -32768.000 
-32768.000 
  2138.400 
    26.340     39.210     12.790    187.840     36.020     35.640     27.510 
     2.180     40.380    148.440     13.710    219.100      1.230      1.230 
    65.000     64.510     38.980     36.450    112.410      0.158      0.006 
     0.000      0.000      0.000      0.164      1.174     27.000      1.270 
     0.032      0.195   2044.888      1.683     31.051    807.317  25067.702 
    22.579 -32768.000 -32768.000 -32768.000 -32768.000 -32768.000 -32768.000 
-32768.000 
  2138.500 
    26.240     38.580     13.420    188.610     36.015     35.635     21.995 
     2.910     40.335    148.385     14.000    219.100      1.230      1.230 
    65.005     64.510     38.980     36.455    112.385      0.158      0.006 
     0.000      0.000      0.000      0.164      1.174     27.000      1.270 
     0.043      0.195   2044.888      1.683     31.051    807.317  25067.702 
    20.041 -32768.000 -32768.000 -32768.000 -32768.000 -32768.000 -32768.000 
-32768.000 
  2138.600 
    26.140     37.950     14.050    189.380     36.010     35.630     16.480 
     3.640     40.290    148.330     14.290    219.100      1.230      1.230 
    65.010     64.510     38.980     36.460    112.360      0.158      0.006 
     0.000      0.000      0.000      0.164      1.174     27.000      1.270 
     0.054      0.195   2044.888      1.683     31.051    807.317  25067.702 
    17.504 -32768.000 -32768.000 -32768.000 -32768.000 -32768.000 -32768.000 
-32768.000 
  2138.700 
    26.040     37.775     14.225    192.040     36.015     35.635     17.535 
     3.435     40.350    148.405     14.410    219.100      1.230      1.230 
    65.005     64.510     38.980     36.460    112.300      0.152      0.006 
     0.000      0.000      0.000      0.158      1.132     27.000      1.270 
     0.049      0.202   1970.075      1.683     29.872    776.660  23236.125 
    17.863 -32768.000 -32768.000 -32768.000 -32768.000 -32768.000 -32768.000 
-32768.000 
  2138.800 
    25.940     37.600     14.400    194.700     36.020     35.640     18.590 
     3.230     40.410    148.480     14.530    219.100      1.230      1.230 
    65.000     64.510     38.980     36.460    112.240      0.146      0.006 
     0.000      0.000      0.000      0.152      1.089     27.000      1.270 
     0.044      0.210   1895.262      1.683     28.692    746.002  21404.548 
    18.223 -32768.000 -32768.000 -32768.000 -32768.000 -32768.000 -32768.000 
-32768.000 
  2138.900 
    25.840     37.560     14.440    194.760     36.020     35.640     19.445 
     3.095     40.315    148.380     14.410    219.100      1.230      1.230 
    64.995     64.640     38.980     36.460    112.280      0.146      0.006 
     0.000      0.000      0.000      0.152      1.089     22.500      1.270 
     0.043      0.210   1895.262      1.683     28.692    746.002  21404.548 
    18.551 -32768.000 -32768.000 -32768.000 -32768.000 -32768.000 -32768.000 
-32768.000 
