~Version Information
#-------------------
VERS.        2.0: CWLS log ASCII Standart - VERSION 2.0
WRAP.        YES: Multiple lines per depth step
~Well Information Block
#----------------------
#MNEM.UNIT  VALUE: DESCRIPTION
#----.---- -------: -------------
STRT.м                  34.4: Начальная глубина
STOP.м                  3192: Конечная глубина
STEP.м                   0.1: Шаг квантования
NULL.              -32768.00: Код отсутствия
COMP.            LUKOIL-KOMI: Название организации
WELL.                    207: Наименование скважины
FLD .       YAREIUSKOE FIELD: Наименование площади
LOC .                    NAO: Расположение скважины
CTRY.                 RUSSIA: Название страны
SRVC.                   PNGG: Наим.орг-ции, проводившей каротаж
DATE.             01.02.2020: Дата регистрации каротажных данных
UWI .                      0: Уникальный идентификатор скважины
~Parameter Information
#---------------------
#MNEM.UNIT         VALUE: DESCRIPTION
#----.----       -------: ---------------
~Curve Information Block
#-----------------------
#MNEM  .UNIT          : CURVE DESCRIPTION
#------.----          : -----------------
DEPT     .m             : Колонка глубины
Hk       .m             : Положение крюка
Wk       .t             : Вес инструмента на крюке
Wd       .t             : Нагрузка на долото
Pin      .atm           : Давление на входе
Qin      .c3/s          : Расход промывочной жидкости на входе
Qout      .c3/s         : Расход промывочной жидкости на выходе
Vmex     .m/h           : Скорость бурения
DMK      .min/m         : Время бурения 1 метра
Np       .ob/min        : Частота оборотов ротора
Nd       .ob/min        : Частота оборотов долота
Mp       .OE            : Крутящий момент на роторе
Dd       .mm            : Диаметр долота
Yin      .g/c3          : Плотность раствора на входе в скважину
Yout     .g/c3          : Плотность раствора на выходе из скважины
Xn1      .h/min         : Ходы насоса 1
Xn2      .h/min         : Ходы насоса 2
Tin      .°С            : Температура раствора на входе
Tout     .°С            : Температура раствора на выходе
Vemk     .m3            : Общий объем раствора в емкостях
C1       .%             : Содержание метана
C2       .%             : Содержание этана
C3       .%             : Содержание пропана
C4       .%             : Содержание бутана
C5       .%             : Содержание пентана
Сuv      .%             : Сумма компонентов углеводородов
Кgazkontr.UE            : Коэффмциент газовой контр.
Lit      .OE            : Литологический код породы
Yn       .g/c3          : Эквивалентная плотность раствора
Cuvp     .c3/d3         : Приведенная сумма компонентов углеводородов в растворе
Wh       .UE            : Газовые коэффициенты
Bh       .UE            : Газовые коэффициенты
Ch       .UE            : Газовые коэффициенты
OPUS3    .UE            : Газовые коэффициенты
OPUS3_1  .UE            : Газовые коэффициенты
OPUS3_2  .UE            : Газовые коэффициенты
BurPor   .UE            : Буровая пористость
TOP      .m             : Кровля пласта
BOTM     .m             : Подошва пласта
DTH      .m             : Толщина пласта
TOPA     .m             : Абсолютные отметки кровли пластов
BTMA     .m             : Абсолютные отметки подошв пластов
RDTH     .m             : Приведенная толщина пластов
COLL     .UE            : Признак коллектора
~Other Information
#-----------------
~Ascii Log Data
# ...
  1928.200 
    11.509     36.259     11.741    216.458     36.016     35.636     19.130 
     3.137     40.383    148.430     12.535    219.100      1.230      1.230 
    64.978     64.771     36.638     34.496    106.854      0.035      0.000 
     0.000      0.000      0.000      0.036      0.254     18.000      1.270 
     0.010      0.071    878.109      5.050     85.313    332.719  28385.068 
    20.118 -32768.000 -32768.000 -32768.000 -32768.000 -32768.000 -32768.000 
-32768.000 
  1928.300 
    11.409     36.270     11.730    218.900     36.019     35.639     25.367 
     2.518     40.363    148.417     12.727    219.100      1.230      1.230 
    64.971     64.642     36.658     34.495    106.785      0.035      0.000 
     0.000      0.000      0.000      0.036      0.254     18.000      1.270 
     0.008      0.071    878.109      5.050     85.313    332.719  28385.068 
    22.432 -32768.000 -32768.000 -32768.000 -32768.000 -32768.000 -32768.000 
-32768.000 
  1928.400 
    11.308     36.280     11.720    221.343     36.021     35.641     31.605 
     1.898     40.343    148.405     12.920    219.100      1.230      1.230 
    64.964     64.512     36.679     34.495    106.716      0.035      0.000 
     0.000      0.000      0.000      0.036      0.254     18.000      1.270 
     0.006      0.071    878.109      5.050     85.313    332.719  28385.068 
    24.746 -32768.000 -32768.000 -32768.000 -32768.000 -32768.000 -32768.000 
-32768.000 
  1928.500 
    11.210     36.181     11.819    223.438     36.022     35.642     26.113 
     2.404     40.343    148.410     12.416    219.100      1.230      1.230 
    64.982     64.641     36.709     34.495    106.615      0.036      0.000 
     0.000      0.000      0.000      0.036      0.261     18.000      1.270 
     0.008      0.063    899.451      2.550     72.719    205.440  16542.294 
    22.689 -32768.000 -32768.000 -32768.000 -32768.000 -32768.000 -32768.000 
-32768.000 
  1928.600 
    11.113     36.083     11.917    225.532     36.023     35.643     20.621 
     2.910     40.344    148.414     11.913    219.100      1.230      1.230 
    65.000     64.771     36.738     34.496    106.513      0.037      0.000 
     0.000      0.000      0.000      0.037      0.267     18.000      1.270 
     0.010      0.054    920.792      0.050     60.125     78.162   4699.520 
    20.632 -32768.000 -32768.000 -32768.000 -32768.000 -32768.000 -32768.000 
-32768.000 
  1928.700 
    11.009     36.241     11.759    224.250     36.017     35.637     24.091 
     2.543     40.344    148.396     12.287    219.100      1.230      1.230 
    64.989     64.641     36.756     34.496    106.452      0.037      0.000 
     0.000      0.000      0.000      0.037      0.267     18.000      1.270 
     0.008      0.054    920.792      0.050     60.125     78.162   4699.520 
    22.072 -32768.000 -32768.000 -32768.000 -32768.000 -32768.000 -32768.000 
-32768.000 
  1928.800 
    10.906     36.399     11.601    222.968     36.011     35.631     27.560 
     2.177     40.344    148.378     12.660    219.100      1.230      1.230 
    64.978     64.512     36.774     34.496    106.391      0.037      0.000 
     0.000      0.000      0.000      0.037      0.267     18.000      1.270 
     0.007      0.054    920.792      0.050     60.125     78.162   4699.520 
    23.512 -32768.000 -32768.000 -32768.000 -32768.000 -32768.000 -32768.000 
-32768.000 
  1928.900 
    10.808     37.175     10.825    224.377     36.014     35.633     32.344 
     1.896     40.365    148.405     13.047    219.100      1.230      1.230 
    64.989     64.512     36.786     34.497    106.316      0.037      0.000 
     0.000      0.000      0.000      0.037      0.267     21.000      1.270 
     0.006      0.054    920.792      0.050     60.125     78.162   4699.520 
    25.764 -32768.000 -32768.000 -32768.000 -32768.000 -32768.000 -32768.000 
-32768.000 
  1929.000 
    10.710     37.950     10.050    225.786     36.016     35.636     37.127 
     1.616     40.386    148.433     13.434    219.100      1.230      1.230 
    65.000     64.512     36.799     34.498    106.241      0.037      0.000 
     0.000      0.000      0.000      0.037      0.267     24.000      1.270 
     0.005      0.054    920.792      0.050     60.125     78.162   4699.520 
    28.015 -32768.000 -32768.000 -32768.000 -32768.000 -32768.000 -32768.000 
-32768.000 
  1929.100 
    10.609     37.454     10.546    225.835     36.016     35.636     38.875 
     1.547     40.408    148.456     12.552    219.100      1.230      1.230 
    64.998     64.512     36.809     34.498    106.159      0.037      0.000 
     0.000      0.000      0.000      0.037      0.267     24.000      1.270 
     0.005      0.054    920.792      0.050     60.125     78.162   4699.520 
    27.990 -32768.000 -32768.000 -32768.000 -32768.000 -32768.000 -32768.000 
-32768.000 
  1929.200 
    10.507     36.957     11.043    225.885     36.016     35.636     40.623 
     1.477     40.431    148.479     11.670    219.100      1.230      1.230 
    64.996     64.512     36.819     34.498    106.078      0.037      0.000 
     0.000      0.000      0.000      0.037      0.267     24.000      1.270 
     0.005      0.054    920.792      0.050     60.125     78.162   4699.520 
    27.965 -32768.000 -32768.000 -32768.000 -32768.000 -32768.000 -32768.000 
-32768.000 
  1929.300 
    10.409     36.716     11.284    222.957     36.018     35.638     34.420 
     1.801     40.380    148.434     12.217    219.100      1.230      1.230 
    65.002     64.512     36.831     34.498    106.084      0.038      0.000 
     0.000      0.000      0.000      0.038      0.275     24.000      1.270 
     0.006      0.065    950.446      2.550     70.622    249.993  19458.941 
    25.883 -32768.000 -32768.000 -32768.000 -32768.000 -32768.000 -32768.000 
-32768.000 
  1929.400 
    10.311     36.474     11.526    220.028     36.020     35.640     28.217 
     2.126     40.329    148.389     12.765    219.100      1.230      1.230 
    65.008     64.512     36.843     34.499    106.089      0.039      0.000 
     0.000      0.000      0.000      0.040      0.283     24.000      1.270 
     0.008      0.076    980.100      5.050     81.120    421.824  34218.363 
    23.801 -32768.000 -32768.000 -32768.000 -32768.000 -32768.000 -32768.000 
-32768.000 
  1929.500 
    10.213     36.367     11.633    215.353     36.018     35.638     17.909 
     5.010     40.294    148.348     12.184    219.100      1.230      1.230 
    65.011     64.512     36.858     34.498    106.157      0.040      0.000 
     0.000      0.000      0.000      0.041      0.286     24.000      1.270 
     0.018      0.075    824.768      3.788     71.760    271.752  20905.597 
    18.645 -32768.000 -32768.000 -32768.000 -32768.000 -32768.000 -32768.000 
-32768.000 
  1929.600 
    10.115     36.261     11.739    210.678     36.016     35.636      7.600 
     7.894     40.259    148.307     11.603    219.100      1.230      1.230 
    65.014     64.512     36.873     34.498    106.225      0.040      0.000 
     0.000      0.000      0.000      0.041      0.290     24.000      1.270 
     0.029      0.074    669.435      2.525     62.400    121.680   7592.832 
    13.490 -32768.000 -32768.000 -32768.000 -32768.000 -32768.000 -32768.000 
-32768.000 
  1929.700 
    10.015     36.227     11.774    210.938     36.013     35.633      7.363 
     8.157     40.261    148.299     11.460    219.100      1.230      1.230 
    65.004     64.512     36.874     34.498    106.267      0.039      0.001 
     0.000      0.000      0.000      0.040      0.283     24.000      1.270 
     0.029      0.089    812.441      1.287     54.356    151.150   7978.869 
    13.282 -32768.000 -32768.000 -32768.000 -32768.000 -32768.000 -32768.000 
-32768.000 
  1929.800 
     9.915     36.192     11.808    211.198     36.009     35.629      7.127 
     8.419     40.264    148.292     11.317    219.100      1.230      1.230 
    64.995     64.512     36.876     34.497    106.310      0.038      0.001 
     0.000      0.000      0.000      0.039      0.277     24.000      1.270 
     0.029      0.103    955.446      0.050     46.312    180.619   8364.906 
    13.074 -32768.000 -32768.000 -32768.000 -32768.000 -32768.000 -32768.000 
-32768.000 
