~Version Information
#-------------------
VERS.        2.0: CWLS log ASCII Standart - VERSION 2.0
WRAP.        YES: Multiple lines per depth step
~Well Information Block
#----------------------
#MNEM.UNIT  VALUE: DESCRIPTION
#----.---- -------: -------------
STRT.м                  34.4: Начальная глубина
STOP.м                  3192: Конечная глубина
STEP.м                   0.1: Шаг квантования
NULL.              -32768.00: Код отсутствия
COMP.            LUKOIL-KOMI: Название организации
WELL.                    207: Наименование скважины
FLD .       YAREIUSKOE FIELD: Наименование площади
LOC .                    NAO: Расположение скважины
CTRY.                 RUSSIA: Название страны
SRVC.                   PNGG: Наим.орг-ции, проводившей каротаж
DATE.             01.02.2020: Дата регистрации каротажных данных
UWI .                      0: Уникальный идентификатор скважины
~Parameter Information
#---------------------
#MNEM.UNIT         VALUE: DESCRIPTION
#----.----       -------: ---------------
~Curve Information Block
#-----------------------
#MNEM  .UNIT          : CURVE DESCRIPTION
#------.----          : -----------------
DEPT     .m             : Колонка глубины
Hk       .m             : Положение крюка
Wk       .t             : Вес инструмента на крюке
Wd       .t             : Нагрузка на долото
Pin      .atm           : Давление на входе
Qin      .c3/s          : Расход промывочной жидкости на входе
Qout      .c3/s         : Расход промывочной жидкости на выходе
Vmex     .m/h           : Скорость бурения
DMK      .min/m         : Время бурения 1 метра
Np       .ob/min        : Частота оборотов ротора
Nd       .ob/min        : Частота оборотов долота
Mp       .OE            : Крутящий момент на роторе
Dd       .mm            : Диаметр долота
Yin      .g/c3          : Плотность раствора на входе в скважину
Yout     .g/c3          : Плотность раствора на выходе из скважины
Xn1      .h/min         : Ходы насоса 1
Xn2      .h/min         : Ходы насоса 2
Tin      .°С            : Температура раствора на входе
Tout     .°С            : Температура раствора на выходе
Vemk     .m3            : Общий объем раствора в емкостях
C1       .%             : Содержание метана
C2       .%             : Содержание этана
C3       .%             : Содержание пропана
C4       .%             : Содержание бутана
C5       .%             : Содержание пентана
Сuv      .%             : Сумма компонентов углеводородов
Кgazkontr.UE            : Коэффмциент газовой контр.
Lit      .OE            : Литологический код породы
Yn       .g/c3          : Эквивалентная плотность раствора
Cuvp     .c3/d3         : Приведенная сумма компонентов углеводородов в растворе
Wh       .UE            : Газовые коэффициенты
Bh       .UE            : Газовые коэффициенты
Ch       .UE            : Газовые коэффициенты
OPUS3    .UE            : Газовые коэффициенты
OPUS3_1  .UE            : Газовые коэффициенты
OPUS3_2  .UE            : Газовые коэффициенты
BurPor   .UE            : Буровая пористость
TOP      .m             : Кровля пласта
BOTM     .m             : Подошва пласта
DTH      .m             : Толщина пласта
TOPA     .m             : Абсолютные отметки кровли пластов
BTMA     .m             : Абсолютные отметки подошв пластов
RDTH     .m             : Приведенная толщина пластов
COLL     .UE            : Признак коллектора
~Other Information
#-----------------
~Ascii Log Data
# ...
  1086.700 
    16.100     42.450      9.540    178.800     54.630     54.250     45.035 
     1.335     40.480    204.365      9.550    295.300      1.170      1.170 
    82.995     82.480     31.620     29.300     86.175      0.109      0.004 
     0.000      0.000      0.000      0.113      0.808     18.000      1.210 
     0.011      0.181   5539.216      0.100     33.718   1753.337  59119.071 
    29.968 -32768.000 -32768.000 -32768.000 -32768.000 -32768.000 -32768.000 
-32768.000 
  1086.800 
    16.000     41.800     10.210    178.650     54.640     54.260     47.310 
     1.270     40.510    204.430      9.800    295.300      1.170      1.170 
    83.020     82.640     31.620     29.300     86.150      0.109      0.004 
     0.000      0.000      0.000      0.113      0.808     18.000      1.210 
     0.011      0.181   5539.216      0.100     33.718   1753.337  59119.071 
    29.718 -32768.000 -32768.000 -32768.000 -32768.000 -32768.000 -32768.000 
-32768.000 
  1086.900 
    15.900     41.900     10.095    179.790     54.640     54.260     47.885 
     1.255     40.530    204.445      9.650    295.300      1.170      1.170 
    83.015     82.640     31.620     29.300     86.115      0.109      0.004 
     0.000      0.000      0.000      0.113      0.808     18.000      1.210 
     0.011      0.181   5539.216      0.100     33.718   1753.337  59119.071 
    29.983 -32768.000 -32768.000 -32768.000 -32768.000 -32768.000 -32768.000 
-32768.000 
  1087.000 
    15.800     42.000      9.980    180.930     54.640     54.260     48.460 
     1.240     40.550    204.460      9.500    295.300      1.170      1.170 
    83.010     82.640     31.620     29.300     86.080      0.109      0.004 
     0.000      0.000      0.000      0.113      0.808     18.000      1.210 
     0.011      0.181   5539.216      0.100     33.718   1753.337  59119.071 
    30.248 -32768.000 -32768.000 -32768.000 -32768.000 -32768.000 -32768.000 
-32768.000 
  1087.100 
    15.700     41.950     10.060    181.195     54.635     54.255     50.650 
     1.190     40.510    204.415      9.300    295.300      1.170      1.170 
    83.010     82.640     31.620     29.300     86.090      0.109      0.004 
     0.000      0.000      0.000      0.113      0.808     18.000      1.210 
     0.011      0.181   5539.216      0.100     33.718   1753.337  59119.071 
    30.645 -32768.000 -32768.000 -32768.000 -32768.000 -32768.000 -32768.000 
-32768.000 
  1087.200 
    15.600     41.900     10.140    181.460     54.630     54.250     52.840 
     1.140     40.470    204.370      9.100    295.300      1.170      1.170 
    83.010     82.640     31.620     29.300     86.100      0.109      0.004 
     0.000      0.000      0.000      0.113      0.808     18.000      1.210 
     0.010      0.181   5539.216      0.100     33.718   1753.337  59119.071 
    31.042 -32768.000 -32768.000 -32768.000 -32768.000 -32768.000 -32768.000 
-32768.000 
  1087.300 
    15.500     42.100      9.900    180.375     54.635     54.255     51.920 
     1.160     40.175    204.090      9.050    295.300      1.170      1.170 
    83.005     82.640     31.620     29.300     85.715      0.109      0.004 
     0.000      0.000      0.000      0.113      0.808     18.000      1.210 
     0.010      0.181   5539.216      0.100     33.718   1753.337  59119.071 
    31.140 -32768.000 -32768.000 -32768.000 -32768.000 -32768.000 -32768.000 
-32768.000 
  1087.400 
    15.400     42.300      9.660    179.290     54.640     54.260     51.000 
     1.180     39.880    203.810      9.000    295.300      1.170      1.170 
    83.000     82.640     31.620     29.300     85.330      0.109      0.004 
     0.000      0.000      0.000      0.113      0.808     18.000      1.210 
     0.010      0.181   5539.216      0.100     33.718   1753.337  59119.071 
    31.238 -32768.000 -32768.000 -32768.000 -32768.000 -32768.000 -32768.000 
-32768.000 
  1087.500 
    15.300     42.300      9.670    176.700     54.640     54.260     50.080 
     1.200     40.295    204.225      8.800    295.300      1.170      1.170 
    83.015     82.640     31.620     29.300     85.560      0.160      0.005 
     0.000      0.000      0.000      0.166      1.183     18.000      1.210 
     0.015      0.172   8112.745      0.100     35.904   2609.748  95571.962 
    31.008 -32768.000 -32768.000 -32768.000 -32768.000 -32768.000 -32768.000 
-32768.000 
  1087.600 
    15.200     42.300      9.680    174.110     54.640     54.260     49.160 
     1.220     40.710    204.640      8.600    295.300      1.170      1.170 
    83.030     82.640     31.620     29.300     85.790      0.211      0.007 
     0.000      0.000      0.000      0.218      1.558     18.000      1.210 
     0.020      0.163  10686.275      0.100     38.090   3466.159 132024.853 
    30.778 -32768.000 -32768.000 -32768.000 -32768.000 -32768.000 -32768.000 
-32768.000 
  1087.700 
    15.100     42.450      9.535    176.940     54.640     54.260     51.000 
     1.180     40.405    204.335      8.850    295.300      1.170      1.170 
    83.025     82.640     31.620     29.300     85.865      0.211      0.007 
     0.000      0.000      0.000      0.218      1.558     18.000      1.210 
     0.019      0.163  10686.275      0.100     38.090   3466.159 132024.853 
    31.373 -32768.000 -32768.000 -32768.000 -32768.000 -32768.000 -32768.000 
-32768.000 
  1087.800 
    15.000     42.600      9.390    179.770     54.640     54.260     52.840 
     1.140     40.100    204.030      9.100    295.300      1.170      1.170 
    83.020     82.640     31.620     29.300     85.940      0.211      0.007 
     0.000      0.000      0.000      0.218      1.558     18.000      1.210 
     0.019      0.163  10686.275      0.100     38.090   3466.159 132024.853 
    31.967 -32768.000 -32768.000 -32768.000 -32768.000 -32768.000 -32768.000 
-32768.000 
  1087.900 
    14.900     42.550      9.430    180.060     54.640     54.260     51.765 
     1.160     40.115    204.035      9.150    295.300      1.170      1.170 
    83.010     82.640     31.620     29.300     86.000      0.211      0.007 
     0.000      0.000      0.000      0.218      1.558     18.000      1.210 
     0.019      0.163  10686.275      0.100     38.090   3466.159 132024.853 
    31.712 -32768.000 -32768.000 -32768.000 -32768.000 -32768.000 -32768.000 
-32768.000 
  1088.000 
    14.800     42.500      9.470    180.350     54.640     54.260     50.690 
     1.180     40.130    204.040      9.200    295.300      1.170      1.170 
    83.000     82.640     31.620     29.300     86.060      0.211      0.007 
     0.000      0.000      0.000      0.218      1.558     18.000      1.210 
     0.019      0.163  10686.275      0.100     38.090   3466.159 132024.853 
    31.458 -32768.000 -32768.000 -32768.000 -32768.000 -32768.000 -32768.000 
-32768.000 
  1088.100 
    14.700     42.350      9.645    179.550     54.635     54.255     50.845 
     1.180     40.110    204.010      9.300    295.300      1.170      1.170 
    82.995     82.640     31.620     29.300     86.075      0.211      0.007 
     0.000      0.000      0.000      0.218      1.558     18.000      1.210 
     0.019      0.163  10686.275      0.100     38.090   3466.159 132024.853 
    31.247 -32768.000 -32768.000 -32768.000 -32768.000 -32768.000 -32768.000 
-32768.000 
  1088.200 
    14.600     42.200      9.820    178.750     54.630     54.250     51.000 
     1.180     40.090    203.980      9.400    295.300      1.170      1.170 
    82.990     82.640     31.620     29.300     86.090      0.211      0.007 
     0.000      0.000      0.000      0.218      1.558     18.000      1.210 
     0.019      0.163  10686.275      0.100     38.090   3466.159 132024.853 
    31.036 -32768.000 -32768.000 -32768.000 -32768.000 -32768.000 -32768.000 
-32768.000 
  1088.300 
    14.500     41.950     10.070    176.935     54.635     54.255     50.845 
     1.180     40.095    204.005      9.300    295.300      1.170      1.170 
    82.995     82.640     31.620     29.300     85.900      0.211      0.007 
     0.000      0.000      0.000      0.218      1.558     18.000      1.210 
     0.019      0.163  10686.275      0.100     38.090   3466.159 132024.853 
    30.747 -32768.000 -32768.000 -32768.000 -32768.000 -32768.000 -32768.000 
-32768.000 
