~Version Information
#-------------------
VERS.        2.0: CWLS log ASCII Standart - VERSION 2.0
WRAP.        YES: Multiple lines per depth step
~Well Information Block
#----------------------
#MNEM.UNIT  VALUE: DESCRIPTION
#----.---- -------: -------------
STRT.м                  34.4: Начальная глубина
STOP.м                  3192: Конечная глубина
STEP.м                   0.1: Шаг квантования
NULL.              -32768.00: Код отсутствия
COMP.            LUKOIL-KOMI: Название организации
WELL.                    207: Наименование скважины
FLD .       YAREIUSKOE FIELD: Наименование площади
LOC .                    NAO: Расположение скважины
CTRY.                 RUSSIA: Название страны
SRVC.                   PNGG: Наим.орг-ции, проводившей каротаж
DATE.             01.02.2020: Дата регистрации каротажных данных
UWI .                      0: Уникальный идентификатор скважины
~Parameter Information
#---------------------
#MNEM.UNIT         VALUE: DESCRIPTION
#----.----       -------: ---------------
~Curve Information Block
#-----------------------
#MNEM  .UNIT          : CURVE DESCRIPTION
#------.----          : -----------------
DEPT     .m             : Колонка глубины
Hk       .m             : Положение крюка
Wk       .t             : Вес инструмента на крюке
Wd       .t             : Нагрузка на долото
Pin      .atm           : Давление на входе
Qin      .c3/s          : Расход промывочной жидкости на входе
Qout      .c3/s         : Расход промывочной жидкости на выходе
Vmex     .m/h           : Скорость бурения
DMK      .min/m         : Время бурения 1 метра
Np       .ob/min        : Частота оборотов ротора
Nd       .ob/min        : Частота оборотов долота
Mp       .OE            : Крутящий момент на роторе
Dd       .mm            : Диаметр долота
Yin      .g/c3          : Плотность раствора на входе в скважину
Yout     .g/c3          : Плотность раствора на выходе из скважины
Xn1      .h/min         : Ходы насоса 1
Xn2      .h/min         : Ходы насоса 2
Tin      .°С            : Температура раствора на входе
Tout     .°С            : Температура раствора на выходе
Vemk     .m3            : Общий объем раствора в емкостях
C1       .%             : Содержание метана
C2       .%             : Содержание этана
C3       .%             : Содержание пропана
C4       .%             : Содержание бутана
C5       .%             : Содержание пентана
Сuv      .%             : Сумма компонентов углеводородов
Кgazkontr.UE            : Коэффмциент газовой контр.
Lit      .OE            : Литологический код породы
Yn       .g/c3          : Эквивалентная плотность раствора
Cuvp     .c3/d3         : Приведенная сумма компонентов углеводородов в растворе
Wh       .UE            : Газовые коэффициенты
Bh       .UE            : Газовые коэффициенты
Ch       .UE            : Газовые коэффициенты
OPUS3    .UE            : Газовые коэффициенты
OPUS3_1  .UE            : Газовые коэффициенты
OPUS3_2  .UE            : Газовые коэффициенты
BurPor   .UE            : Буровая пористость
TOP      .m             : Кровля пласта
BOTM     .m             : Подошва пласта
DTH      .m             : Толщина пласта
TOPA     .m             : Абсолютные отметки кровли пластов
BTMA     .m             : Абсолютные отметки подошв пластов
RDTH     .m             : Приведенная толщина пластов
COLL     .UE            : Признак коллектора
~Other Information
#-----------------
~Ascii Log Data
# ...
  2978.800 
    18.504     55.760     13.263    182.000     35.920     35.538     19.570 
     3.067     44.040    107.760     28.850    219.100      1.242      1.244 
    64.820     64.790     36.502     48.250    100.920      0.562      0.013 
     0.002      0.003      0.002      0.582      4.157     10.000      1.282 
     0.160      0.172    410.714     12.500     42.212    356.695  15056.974 
    22.141 -32768.000 -32768.000 -32768.000 -32768.000 -32768.000 -32768.000 
-32768.000 
  2978.900 
    18.410     55.670     13.303    181.000     35.920     35.538     19.150 
     3.135     43.950    107.760     27.695    219.100      1.242      1.244 
    64.835     64.835     36.500     48.005    100.960      0.570      0.013 
     0.003      0.003      0.002      0.591      4.221     10.000      1.282 
     0.167      0.177    390.357     10.416     39.306    288.761  11547.532 
    21.916 -32768.000 -32768.000 -32768.000 -32768.000 -32768.000 -32768.000 
-32768.000 
  2979.000 
    18.316     55.580     13.343    180.000     35.920     35.538     18.730 
     3.204     43.860    107.760     26.540    219.100      1.242      1.244 
    64.850     64.880     36.498     47.760    101.000      0.578      0.014 
     0.003      0.003      0.002      0.600      4.286     10.000      1.282 
     0.173      0.183    370.000      8.333     36.400    220.827   8038.091 
    21.691 -32768.000 -32768.000 -32768.000 -32768.000 -32768.000 -32768.000 
-32768.000 
  2979.100 
    18.215     55.475     13.506    180.500     35.920     35.538     20.105 
     2.998     43.995    107.760     27.140    219.100      1.242      1.244 
    64.845     64.860     36.499     48.360    100.955      0.578      0.014 
     0.003      0.003      0.002      0.600      4.286     10.000      1.282 
     0.162      0.183    370.000      8.333     36.400    220.827   8038.091 
    22.207 -32768.000 -32768.000 -32768.000 -32768.000 -32768.000 -32768.000 
-32768.000 
  2979.200 
    18.113     55.370     13.669    181.000     35.920     35.538     21.480 
     2.793     44.130    107.760     27.740    219.100      1.242      1.244 
    64.840     64.840     36.500     48.960    100.910      0.578      0.014 
     0.003      0.003      0.002      0.600      4.286     10.000      1.282 
     0.150      0.183    370.000      8.333     36.400    220.827   8038.091 
    22.724 -32768.000 -32768.000 -32768.000 -32768.000 -32768.000 -32768.000 
-32768.000 
  2979.300 
    18.011     55.345     13.671    181.000     35.920     35.538     19.650 
     3.081     44.155    107.760     28.345    219.100      1.242      1.244 
    64.840     64.855     36.499     48.835    100.870      0.575      0.014 
     0.003      0.003      0.002      0.597      4.268     10.000      1.282 
     0.165      0.184    368.437      8.333     36.242    219.871   7968.858 
    21.879 -32768.000 -32768.000 -32768.000 -32768.000 -32768.000 -32768.000 
-32768.000 
  2979.400 
    17.910     55.320     13.672    181.000     35.920     35.538     17.820 
     3.368     44.180    107.760     28.950    219.100      1.242      1.244 
    64.840     64.870     36.498     48.710    100.830      0.573      0.014 
     0.003      0.003      0.002      0.595      4.250     10.000      1.282 
     0.180      0.185    366.875      8.333     36.085    218.916   7899.625 
    21.034 -32768.000 -32768.000 -32768.000 -32768.000 -32768.000 -32768.000 
-32768.000 
  2979.500 
    17.808     55.420     13.593    181.500     35.920     35.538     19.650 
     3.080     43.850    107.760     29.090    219.100      1.242      1.244 
    64.840     64.860     36.495     49.270    100.865      0.570      0.014 
     0.003      0.003      0.002      0.592      4.225     10.000      1.282 
     0.164      0.182    390.938     10.416     38.197    292.869  11343.147 
    21.933 -32768.000 -32768.000 -32768.000 -32768.000 -32768.000 -32768.000 
-32768.000 
  2979.600 
    17.707     55.520     13.514    182.000     35.920     35.538     21.480 
     2.793     43.520    107.760     29.230    219.100      1.242      1.244 
    64.840     64.850     36.493     49.830    100.900      0.567      0.014 
     0.002      0.003      0.002      0.588      4.200     10.000      1.282 
     0.147      0.179    415.000     12.500     40.310    366.822  14786.669 
    22.831 -32768.000 -32768.000 -32768.000 -32768.000 -32768.000 -32768.000 
-32768.000 
  2979.700 
    17.606     55.655     13.435    182.000     35.920     35.538     20.105 
     2.998     43.525    107.760     28.745    219.100      1.242      1.244 
    64.830     64.835     36.427     48.675    100.870      0.567      0.014 
     0.002      0.003      0.002      0.588      4.200     10.000      1.282 
     0.158      0.179    415.000     12.500     40.310    366.822  14786.669 
    22.257 -32768.000 -32768.000 -32768.000 -32768.000 -32768.000 -32768.000 
-32768.000 
  2979.800 
    17.504     55.790     13.355    182.000     35.920     35.538     18.730 
     3.204     43.530    107.760     28.260    219.100      1.242      1.245 
    64.820     64.820     36.361     47.520    100.840      0.567      0.014 
     0.002      0.003      0.002      0.588      4.200     10.000      1.282 
     0.169      0.179    415.000     12.500     40.310    366.822  14786.669 
    21.683 -32768.000 -32768.000 -32768.000 -32768.000 -32768.000 -32768.000 
-32768.000 
  2979.900 
    17.402     55.535     13.412    181.000     35.920     35.538     20.105 
     2.998     43.905    107.760     29.220    219.100      1.242      1.244 
    64.845     64.835     36.361     47.655    100.845      0.548      0.013 
     0.002      0.003      0.002      0.569      4.064     10.000      1.282 
     0.153      0.180    401.428     12.500     40.059    351.603  14088.894 
    22.272 -32768.000 -32768.000 -32768.000 -32768.000 -32768.000 -32768.000 
-32768.000 
  2980.000 
    17.301     55.280     13.470    180.000     35.920     35.538     21.480 
     2.793     44.280    107.760     30.180    219.100      1.242      1.244 
    64.870     64.850     36.360     47.790    100.850      0.530      0.013 
     0.002      0.003      0.002      0.550      3.929     10.000      1.282 
     0.138      0.182    387.857     12.500     39.809    336.385  13391.118 
    22.861 -32768.000 -32768.000 -32768.000 -32768.000 -32768.000 -32768.000 
-32768.000 
  2980.100 
    17.200     55.255     13.562    180.500     35.920     35.538     19.870 
     3.039     44.275    107.760     30.165    219.100      1.242      1.244 
    64.855     64.835     36.359     49.155    100.870      0.528      0.013 
     0.002      0.003      0.002      0.548      3.918     10.000      1.282 
     0.149      0.182    386.786     12.500     39.697    335.433  13315.533 
    22.061 -32768.000 -32768.000 -32768.000 -32768.000 -32768.000 -32768.000 
-32768.000 
  2980.200 
    17.099     55.230     13.654    181.000     35.920     35.538     18.260 
     3.286     44.270    107.760     30.150    219.100      1.242      1.244 
    64.840     64.820     36.358     50.520    100.890      0.527      0.013 
     0.002      0.003      0.002      0.547      3.907     10.000      1.282 
     0.161      0.183    385.714     12.500     39.584    334.481  13239.949 
    21.262 -32768.000 -32768.000 -32768.000 -32768.000 -32768.000 -32768.000 
-32768.000 
  2980.300 
    16.997     55.290     13.570    181.000     35.920     35.538     19.870 
     3.039     44.065    107.760     29.525    219.100      1.242      1.244 
    64.840     64.835     36.358     50.295    100.930      0.518      0.013 
     0.002      0.003      0.002      0.538      3.846     10.000      1.282 
     0.147      0.186    379.642     12.500     38.945    329.086  12819.742 
    22.056 -32768.000 -32768.000 -32768.000 -32768.000 -32768.000 -32768.000 
-32768.000 
  2980.400 
    16.896     55.350     13.486    181.000     35.920     35.538     21.480 
     2.793     43.860    107.760     28.900    219.100      1.242      1.244 
    64.840     64.850     36.358     50.070    100.970      0.510      0.013 
     0.002      0.003      0.002      0.530      3.786     10.000      1.282 
     0.133      0.189    373.571     12.500     38.307    323.691  12399.536 
    22.850 -32768.000 -32768.000 -32768.000 -32768.000 -32768.000 -32768.000 
-32768.000 
