~Version Information
#-------------------
VERS.        2.0: CWLS log ASCII Standart - VERSION 2.0
WRAP.        YES: Multiple lines per depth step
~Well Information Block
#----------------------
#MNEM.UNIT  VALUE: DESCRIPTION
#----.---- -------: -------------
STRT.м                  34.4: Начальная глубина
STOP.м                  3192: Конечная глубина
STEP.м                   0.1: Шаг квантования
NULL.              -32768.00: Код отсутствия
COMP.            LUKOIL-KOMI: Название организации
WELL.                    207: Наименование скважины
FLD .       YAREIUSKOE FIELD: Наименование площади
LOC .                    NAO: Расположение скважины
CTRY.                 RUSSIA: Название страны
SRVC.                   PNGG: Наим.орг-ции, проводившей каротаж
DATE.             01.02.2020: Дата регистрации каротажных данных
UWI .                      0: Уникальный идентификатор скважины
~Parameter Information
#---------------------
#MNEM.UNIT         VALUE: DESCRIPTION
#----.----       -------: ---------------
~Curve Information Block
#-----------------------
#MNEM  .UNIT          : CURVE DESCRIPTION
#------.----          : -----------------
DEPT     .m             : Колонка глубины
Hk       .m             : Положение крюка
Wk       .t             : Вес инструмента на крюке
Wd       .t             : Нагрузка на долото
Pin      .atm           : Давление на входе
Qin      .c3/s          : Расход промывочной жидкости на входе
Qout      .c3/s         : Расход промывочной жидкости на выходе
Vmex     .m/h           : Скорость бурения
DMK      .min/m         : Время бурения 1 метра
Np       .ob/min        : Частота оборотов ротора
Nd       .ob/min        : Частота оборотов долота
Mp       .OE            : Крутящий момент на роторе
Dd       .mm            : Диаметр долота
Yin      .g/c3          : Плотность раствора на входе в скважину
Yout     .g/c3          : Плотность раствора на выходе из скважины
Xn1      .h/min         : Ходы насоса 1
Xn2      .h/min         : Ходы насоса 2
Tin      .°С            : Температура раствора на входе
Tout     .°С            : Температура раствора на выходе
Vemk     .m3            : Общий объем раствора в емкостях
C1       .%             : Содержание метана
C2       .%             : Содержание этана
C3       .%             : Содержание пропана
C4       .%             : Содержание бутана
C5       .%             : Содержание пентана
Сuv      .%             : Сумма компонентов углеводородов
Кgazkontr.UE            : Коэффмциент газовой контр.
Lit      .OE            : Литологический код породы
Yn       .g/c3          : Эквивалентная плотность раствора
Cuvp     .c3/d3         : Приведенная сумма компонентов углеводородов в растворе
Wh       .UE            : Газовые коэффициенты
Bh       .UE            : Газовые коэффициенты
Ch       .UE            : Газовые коэффициенты
OPUS3    .UE            : Газовые коэффициенты
OPUS3_1  .UE            : Газовые коэффициенты
OPUS3_2  .UE            : Газовые коэффициенты
BurPor   .UE            : Буровая пористость
TOP      .m             : Кровля пласта
BOTM     .m             : Подошва пласта
DTH      .m             : Толщина пласта
TOPA     .m             : Абсолютные отметки кровли пластов
BTMA     .m             : Абсолютные отметки подошв пластов
RDTH     .m             : Приведенная толщина пластов
COLL     .UE            : Признак коллектора
~Other Information
#-----------------
~Ascii Log Data
# ...
  1506.600 
    16.600     36.500      8.520    202.300     36.190     35.810     45.700 
     1.310     40.330    148.890     10.600    219.100      1.220      1.220 
    54.980     54.670     28.600     26.400     52.150      0.037      0.001 
     0.000      0.000      0.000      0.038      0.271     24.000      1.260 
     0.005      0.132  63333.333     10.000     48.004  62405.127 2995692.24 
    32.166 -32768.000 -32768.000 -32768.000 -32768.000 -32768.000 -32768.000 
-32768.000 
  1506.700 
    16.500     36.600      8.415    198.595     36.190     35.810     46.240 
     1.295     40.230    148.795     10.550    219.100      1.220      1.220 
    54.975     54.775     28.600     26.400     52.165      0.037      0.001 
     0.000      0.000      0.000      0.038      0.271     24.000      1.260 
     0.004      0.132  63333.333     10.000     48.004  62405.127 2995692.24 
    32.463 -32768.000 -32768.000 -32768.000 -32768.000 -32768.000 -32768.000 
-32768.000 
  1506.800 
    16.400     36.700      8.310    194.890     36.190     35.810     46.780 
     1.280     40.130    148.700     10.500    219.100      1.220      1.220 
    54.970     54.880     28.600     26.400     52.180      0.037      0.001 
     0.000      0.000      0.000      0.038      0.271     24.000      1.260 
     0.004      0.132  63333.333     10.000     48.004  62405.127 2995692.24 
    32.759 -32768.000 -32768.000 -32768.000 -32768.000 -32768.000 -32768.000 
-32768.000 
  1506.900 
    16.300     36.500      8.485    199.030     36.190     35.810     46.105 
     1.300     40.120    148.685     10.350    219.100      1.220      1.220 
    54.965     54.775     28.600     26.400     52.180      0.037      0.001 
     0.000      0.000      0.000      0.038      0.271     24.000      1.260 
     0.005      0.132  63333.333     10.000     48.004  62405.127 2995692.24 
    32.329 -32768.000 -32768.000 -32768.000 -32768.000 -32768.000 -32768.000 
-32768.000 
  1507.000 
    16.200     36.300      8.660    203.170     36.190     35.810     45.430 
     1.320     40.110    148.670     10.200    219.100      1.220      1.220 
    54.960     54.670     28.600     26.400     52.180      0.037      0.001 
     0.000      0.000      0.000      0.038      0.271     24.000      1.260 
     0.005      0.132  63333.333     10.000     48.004  62405.127 2995692.24 
    31.899 -32768.000 -32768.000 -32768.000 -32768.000 -32768.000 -32768.000 
-32768.000 
  1507.100 
    16.100     36.400      8.555    202.330     36.190     35.810     45.080 
     1.330     40.240    148.805     10.250    219.100      1.220      1.220 
    54.970     54.670     28.600     26.400     52.165      0.037      0.001 
     0.000      0.000      0.000      0.038      0.271     24.000      1.260 
     0.005      0.132  63333.333     10.000     48.004  62405.127 2995692.24 
    31.944 -32768.000 -32768.000 -32768.000 -32768.000 -32768.000 -32768.000 
-32768.000 
  1507.200 
    16.000     36.500      8.450    201.490     36.190     35.810     44.730 
     1.340     40.370    148.940     10.300    219.100      1.220      1.220 
    54.980     54.670     28.600     26.400     52.150      0.037      0.001 
     0.000      0.000      0.000      0.038      0.271     24.000      1.260 
     0.005      0.132  63333.333     10.000     48.004  62405.127 2995692.24 
    31.990 -32768.000 -32768.000 -32768.000 -32768.000 -32768.000 -32768.000 
-32768.000 
  1507.300 
    15.900     36.250      8.710    203.705     36.190     35.810     45.755 
     1.310     40.275    148.835     10.300    219.100      1.220      1.220 
    54.970     54.670     28.600     26.400     52.165      0.039      0.001 
     0.000      0.000      0.000      0.040      0.289     24.000      1.260 
     0.005      0.125  67500.000     10.000     51.247  66621.690 3427868.44 
    31.916 -32768.000 -32768.000 -32768.000 -32768.000 -32768.000 -32768.000 
-32768.000 
  1507.400 
    15.800     36.000      8.970    205.920     36.190     35.810     46.780 
     1.280     40.180    148.730     10.300    219.100      1.220      1.220 
    54.960     54.670     28.600     26.400     52.180      0.042      0.001 
     0.000      0.000      0.000      0.043      0.307     24.000      1.260 
     0.005      0.117  71666.667     10.000     54.491  70838.253 3860044.64 
    31.842 -32768.000 -32768.000 -32768.000 -32768.000 -32768.000 -32768.000 
-32768.000 
  1507.500 
    15.700     35.050      9.950    207.385     36.185     35.805     46.105 
     1.300     40.270    148.815     10.450    219.100      1.220      1.220 
    54.970     54.670     28.600     26.400     52.175      0.042      0.001 
     0.000      0.000      0.000      0.043      0.307     24.000      1.260 
     0.005      0.117  71666.667     10.000     54.491  70838.253 3860044.64 
    30.518 -32768.000 -32768.000 -32768.000 -32768.000 -32768.000 -32768.000 
-32768.000 
  1507.600 
    15.600     34.100     10.930    208.850     36.180     35.800     45.430 
     1.320     40.360    148.900     10.600    219.100      1.220      1.220 
    54.980     54.670     28.600     26.400     52.170      0.042      0.001 
     0.000      0.000      0.000      0.043      0.307     24.000      1.260 
     0.005      0.117  71666.667     10.000     54.491  70838.253 3860044.64 
    29.195 -32768.000 -32768.000 -32768.000 -32768.000 -32768.000 -32768.000 
-32768.000 
  1507.700 
    15.500     34.200     10.805    207.885     36.180     35.800     45.295 
     1.325     40.390    148.935     10.350    219.100      1.220      1.220 
    54.975     54.670     28.600     26.400     52.180      0.042      0.001 
     0.000      0.000      0.000      0.043      0.307     24.000      1.260 
     0.005      0.117  71666.667     10.000     54.491  70838.253 3860044.64 
    29.280 -32768.000 -32768.000 -32768.000 -32768.000 -32768.000 -32768.000 
-32768.000 
  1507.800 
    15.400     34.300     10.680    206.920     36.180     35.800     45.160 
     1.330     40.420    148.970     10.100    219.100      1.220      1.220 
    54.970     54.670     28.600     26.400     52.190      0.042      0.001 
     0.000      0.000      0.000      0.043      0.307     24.000      1.260 
     0.005      0.117  71666.667     10.000     54.491  70838.253 3860044.64 
    29.365 -32768.000 -32768.000 -32768.000 -32768.000 -32768.000 -32768.000 
-32768.000 
  1507.900 
    15.300     34.150     10.865    208.390     36.180     35.800     44.355 
     1.355     40.365    148.920     10.300    219.100      1.220      1.220 
    54.965     54.670     28.600     26.350     52.175      0.042      0.001 
     0.000      0.000      0.000      0.043      0.307     24.000      1.260 
     0.005      0.117  71666.667     10.000     54.491  70838.253 3860044.64 
    28.974 -32768.000 -32768.000 -32768.000 -32768.000 -32768.000 -32768.000 
-32768.000 
  1508.000 
    15.200     34.000     11.050    209.860     36.180     35.800     43.550 
     1.380     40.310    148.870     10.500    219.100      1.220      1.220 
    54.960     54.670     28.600     26.300     52.160      0.042      0.001 
     0.000      0.000      0.000      0.043      0.307     24.000      1.260 
     0.005      0.117  71666.667     10.000     54.491  70838.253 3860044.64 
    28.583 -32768.000 -32768.000 -32768.000 -32768.000 -32768.000 -32768.000 
-32768.000 
  1508.100 
    15.100     34.450     10.585    207.110     36.185     35.805     40.810 
     1.480     40.330    148.890     10.400    219.100      1.220      1.220 
    54.970     54.670     28.600     26.300     52.175      0.042      0.001 
     0.000      0.000      0.000      0.043      0.307     24.000      1.260 
     0.005      0.117  71666.667     10.000     54.491  70838.253 3860044.64 
    28.322 -32768.000 -32768.000 -32768.000 -32768.000 -32768.000 -32768.000 
-32768.000 
  1508.200 
    15.000     34.900     10.120    204.360     36.190     35.810     38.070 
     1.580     40.350    148.910     10.300    219.100      1.220      1.220 
    54.980     54.670     28.600     26.300     52.190      0.042      0.001 
     0.000      0.000      0.000      0.043      0.307     24.000      1.260 
     0.006      0.117  71666.667     10.000     54.491  70838.253 3860044.64 
    28.060 -32768.000 -32768.000 -32768.000 -32768.000 -32768.000 -32768.000 
-32768.000 
