~Version Information
#-------------------
VERS.        2.0: CWLS log ASCII Standart - VERSION 2.0
WRAP.        YES: Multiple lines per depth step
~Well Information Block
#----------------------
#MNEM.UNIT  VALUE: DESCRIPTION
#----.---- -------: -------------
STRT.м                  34.4: Начальная глубина
STOP.м                  3192: Конечная глубина
STEP.м                   0.1: Шаг квантования
NULL.              -32768.00: Код отсутствия
COMP.            LUKOIL-KOMI: Название организации
WELL.                    207: Наименование скважины
FLD .       YAREIUSKOE FIELD: Наименование площади
LOC .                    NAO: Расположение скважины
CTRY.                 RUSSIA: Название страны
SRVC.                   PNGG: Наим.орг-ции, проводившей каротаж
DATE.             01.02.2020: Дата регистрации каротажных данных
UWI .                      0: Уникальный идентификатор скважины
~Parameter Information
#---------------------
#MNEM.UNIT         VALUE: DESCRIPTION
#----.----       -------: ---------------
~Curve Information Block
#-----------------------
#MNEM  .UNIT          : CURVE DESCRIPTION
#------.----          : -----------------
DEPT     .m             : Колонка глубины
Hk       .m             : Положение крюка
Wk       .t             : Вес инструмента на крюке
Wd       .t             : Нагрузка на долото
Pin      .atm           : Давление на входе
Qin      .c3/s          : Расход промывочной жидкости на входе
Qout      .c3/s         : Расход промывочной жидкости на выходе
Vmex     .m/h           : Скорость бурения
DMK      .min/m         : Время бурения 1 метра
Np       .ob/min        : Частота оборотов ротора
Nd       .ob/min        : Частота оборотов долота
Mp       .OE            : Крутящий момент на роторе
Dd       .mm            : Диаметр долота
Yin      .g/c3          : Плотность раствора на входе в скважину
Yout     .g/c3          : Плотность раствора на выходе из скважины
Xn1      .h/min         : Ходы насоса 1
Xn2      .h/min         : Ходы насоса 2
Tin      .°С            : Температура раствора на входе
Tout     .°С            : Температура раствора на выходе
Vemk     .m3            : Общий объем раствора в емкостях
C1       .%             : Содержание метана
C2       .%             : Содержание этана
C3       .%             : Содержание пропана
C4       .%             : Содержание бутана
C5       .%             : Содержание пентана
Сuv      .%             : Сумма компонентов углеводородов
Кgazkontr.UE            : Коэффмциент газовой контр.
Lit      .OE            : Литологический код породы
Yn       .g/c3          : Эквивалентная плотность раствора
Cuvp     .c3/d3         : Приведенная сумма компонентов углеводородов в растворе
Wh       .UE            : Газовые коэффициенты
Bh       .UE            : Газовые коэффициенты
Ch       .UE            : Газовые коэффициенты
OPUS3    .UE            : Газовые коэффициенты
OPUS3_1  .UE            : Газовые коэффициенты
OPUS3_2  .UE            : Газовые коэффициенты
BurPor   .UE            : Буровая пористость
TOP      .m             : Кровля пласта
BOTM     .m             : Подошва пласта
DTH      .m             : Толщина пласта
TOPA     .m             : Абсолютные отметки кровли пластов
BTMA     .m             : Абсолютные отметки подошв пластов
RDTH     .m             : Приведенная толщина пластов
COLL     .UE            : Признак коллектора
~Other Information
#-----------------
~Ascii Log Data
# ...
  3189.600 
     6.928     62.580     10.535    171.000     35.920     35.538     11.780 
     5.093     47.330    107.760     27.810    219.100      1.241      1.244 
    64.820     64.850     36.529     60.310     86.930      0.017      0.000 
     0.000      0.000      0.001      0.019      0.133     10.000      1.281 
     0.008      0.418     72.550     71.667     41.921    247.332  10368.313 
    19.723 -32768.000 -32768.000 -32768.000 -32768.000 -32768.000 -32768.000 
-32768.000 
  3189.700 
     6.827     62.445     10.544    171.000     35.920     35.538     10.570 
     5.750     47.135    107.760     29.450    219.100      1.241      1.244 
    64.820     64.835     36.529     58.620     86.930      0.017      0.000 
     0.000      0.000      0.001      0.018      0.129     10.000      1.281 
     0.009      0.406     73.145    131.815     52.868    519.212  30426.386 
    18.801 -32768.000 -32768.000 -32768.000 -32768.000 -32768.000 -32768.000 
-32768.000 
  3189.800 
     6.725     62.310     10.553    171.000     35.920     35.538      9.360 
     6.407     46.940    107.760     31.090    219.100      1.241      1.243 
    64.820     64.820     36.529     56.930     86.930      0.016      0.000 
     0.000      0.000      0.001      0.017      0.124     10.000      1.281 
     0.010      0.394     73.740    191.964     63.816    791.092  50484.460 
    17.878 -32768.000 -32768.000 -32768.000 -32768.000 -32768.000 -32768.000 
-32768.000 
  3189.900 
     6.623     62.480     10.516    171.000     35.925     35.543     10.385 
     5.832     46.840    107.775     29.515    219.100      1.241      1.244 
    64.835     64.835     36.528     57.280     86.905      0.017      0.000 
     0.000      0.001      0.001      0.018      0.130     10.000      1.281 
     0.009      0.442     68.639    153.789     50.515    596.271  32711.927 
    18.691 -32768.000 -32768.000 -32768.000 -32768.000 -32768.000 -32768.000 
-32768.000 
  3190.000 
     6.522     62.650     10.479    171.000     35.930     35.548     11.410 
     5.257     46.740    107.790     27.940    219.100      1.241      1.244 
    64.850     64.850     36.527     57.630     86.880      0.017      0.000 
     0.000      0.001      0.001      0.019      0.135     10.000      1.281 
     0.009      0.490     63.538    115.614     37.214    401.450  14939.394 
    19.503 -32768.000 -32768.000 -32768.000 -32768.000 -32768.000 -32768.000 
-32768.000 
  3190.100 
     6.420     62.595     10.483    170.500     35.925     35.543     10.510 
     5.750     46.845    107.775     29.170    219.100      1.241      1.244 
    64.845     64.850     36.527     59.475     86.900      0.017      0.000 
     0.000      0.001      0.001      0.019      0.135     10.000      1.281 
     0.010      0.493     62.433     82.258     33.216    266.046   9378.236 
    18.814 -32768.000 -32768.000 -32768.000 -32768.000 -32768.000 -32768.000 
-32768.000 
  3190.200 
     6.319     62.540     10.488    170.000     35.920     35.538      9.610 
     6.243     46.950    107.760     30.400    219.100      1.241      1.244 
    64.840     64.850     36.527     61.320     86.920      0.017      0.000 
     0.000      0.001      0.001      0.019      0.135     10.000      1.281 
     0.011      0.497     61.328     48.902     29.218    130.641   3817.078 
    18.125 -32768.000 -32768.000 -32768.000 -32768.000 -32768.000 -32768.000 
-32768.000 
  3190.300 
     6.217     62.545     10.492    170.000     35.925     35.543     10.600 
     5.709     47.375    107.775     29.815    219.100      1.241      1.244 
    64.840     64.875     36.528     60.465     86.900      0.017      0.000 
     0.000      0.001      0.001      0.019      0.135     10.000      1.281 
     0.010      0.495     60.636     38.526     26.077     93.095   2545.575 
    18.872 -32768.000 -32768.000 -32768.000 -32768.000 -32768.000 -32768.000 
-32768.000 
  3190.400 
     6.116     62.550     10.497    170.000     35.930     35.548     11.590 
     5.175     47.800    107.790     29.230    219.100      1.241      1.244 
    64.840     64.900     36.529     59.610     86.880      0.017      0.000 
     0.000      0.001      0.001      0.019      0.135     10.000      1.281 
     0.009      0.493     59.945     28.151     22.936     55.549   1274.072 
    19.619 -32768.000 -32768.000 -32768.000 -32768.000 -32768.000 -32768.000 
-32768.000 
  3190.500 
     6.014     62.450     10.520    170.000     35.930     35.548     10.665 
     5.668     47.240    107.790     29.420    219.100      1.241      1.244 
    64.845     64.875     36.528     59.830     86.855      0.017      0.000 
     0.000      0.001      0.001      0.018      0.130     10.000      1.281 
     0.009      0.435     79.361    102.228     31.349    562.661  21905.243 
    18.902 -32768.000 -32768.000 -32768.000 -32768.000 -32768.000 -32768.000 
-32768.000 
  3190.600 
     5.913     62.350     10.542    170.000     35.930     35.548      9.740 
     6.161     46.680    107.790     29.610    219.100      1.241      1.245 
    64.850     64.850     36.527     60.050     86.830      0.016      0.000 
     0.000      0.000      0.001      0.017      0.124     10.000      1.281 
     0.010      0.378     98.777    176.304     39.762   1069.773  42536.413 
    18.186 -32768.000 -32768.000 -32768.000 -32768.000 -32768.000 -32768.000 
-32768.000 
  3190.700 
     5.812     62.415     10.548    170.000     35.930     35.548     10.760 
     5.627     46.715    107.790     29.095    219.100      1.241      1.245 
    64.850     64.850     36.527     58.505     86.860      0.016      0.000 
     0.000      0.000      0.001      0.017      0.124     10.000      1.281 
     0.009      0.400     91.252    165.088     38.521    921.032  35663.548 
    18.946 -32768.000 -32768.000 -32768.000 -32768.000 -32768.000 -32768.000 
-32768.000 
  3190.800 
     5.710     62.480     10.554    170.000     35.930     35.548     11.780 
     5.093     46.750    107.790     28.580    219.100      1.241      1.245 
    64.850     64.850     36.527     56.960     86.890      0.016      0.000 
     0.000      0.000      0.001      0.017      0.125     10.000      1.281 
     0.008      0.423     83.726    153.871     37.280    772.290  28790.683 
    19.706 -32768.000 -32768.000 -32768.000 -32768.000 -32768.000 -32768.000 
-32768.000 
  3190.900 
     5.616     62.590     10.515    171.000     35.925     35.543     11.910 
     5.038     46.735    107.775     28.810    219.100      1.241      1.245 
    64.845     64.845     36.528     58.840     86.905      0.016      0.001 
     0.000      0.000      0.001      0.018      0.126     10.000      1.281 
     0.008      0.442     78.740    141.042     36.163    660.597  24014.123 
    19.829 -32768.000 -32768.000 -32768.000 -32768.000 -32768.000 -32768.000 
-32768.000 
  3191.000 
     5.522     62.700     10.476    172.000     35.920     35.538     12.040 
     4.983     46.720    107.760     29.040    219.100      1.241      1.245 
    64.840     64.840     36.528     60.720     86.920      0.016      0.001 
     0.000      0.000      0.001      0.018      0.126     10.000      1.281 
     0.008      0.461     73.753    128.214     35.047    548.905  19237.563 
    19.952 -32768.000 -32768.000 -32768.000 -32768.000 -32768.000 -32768.000 
-32768.000 
  3191.100 
     5.428     62.655     10.466    172.000     35.920     35.538     11.910 
     5.038     46.700    107.760     29.515    219.100      1.241      1.246 
    64.830     64.855     36.529     60.855     86.870      0.016      0.001 
     0.000      0.001      0.001      0.018      0.126     10.000      1.281 
     0.008      0.467     68.990    101.482     35.853    390.918  13888.475 
    19.869 -32768.000 -32768.000 -32768.000 -32768.000 -32768.000 -32768.000 
-32768.000 
  3191.200 
     5.333     62.610     10.455    172.000     35.920     35.538     11.780 
     5.093     46.680    107.760     29.990    219.100      1.241      1.246 
    64.820     64.870     36.530     60.990     86.820      0.016      0.000 
     0.000      0.001      0.001      0.018      0.126     10.000      1.281 
     0.008      0.472     64.228     74.750     36.660    232.932   8539.387 
    19.787 -32768.000 -32768.000 -32768.000 -32768.000 -32768.000 -32768.000 
-32768.000 
