~Version Information
#-------------------
VERS.        2.0: CWLS log ASCII Standart - VERSION 2.0
WRAP.        YES: Multiple lines per depth step
~Well Information Block
#----------------------
#MNEM.UNIT  VALUE: DESCRIPTION
#----.---- -------: -------------
STRT.м                  34.4: Начальная глубина
STOP.м                  3192: Конечная глубина
STEP.м                   0.1: Шаг квантования
NULL.              -32768.00: Код отсутствия
COMP.            LUKOIL-KOMI: Название организации
WELL.                    207: Наименование скважины
FLD .       YAREIUSKOE FIELD: Наименование площади
LOC .                    NAO: Расположение скважины
CTRY.                 RUSSIA: Название страны
SRVC.                   PNGG: Наим.орг-ции, проводившей каротаж
DATE.             01.02.2020: Дата регистрации каротажных данных
UWI .                      0: Уникальный идентификатор скважины
~Parameter Information
#---------------------
#MNEM.UNIT         VALUE: DESCRIPTION
#----.----       -------: ---------------
~Curve Information Block
#-----------------------
#MNEM  .UNIT          : CURVE DESCRIPTION
#------.----          : -----------------
DEPT     .m             : Колонка глубины
Hk       .m             : Положение крюка
Wk       .t             : Вес инструмента на крюке
Wd       .t             : Нагрузка на долото
Pin      .atm           : Давление на входе
Qin      .c3/s          : Расход промывочной жидкости на входе
Qout      .c3/s         : Расход промывочной жидкости на выходе
Vmex     .m/h           : Скорость бурения
DMK      .min/m         : Время бурения 1 метра
Np       .ob/min        : Частота оборотов ротора
Nd       .ob/min        : Частота оборотов долота
Mp       .OE            : Крутящий момент на роторе
Dd       .mm            : Диаметр долота
Yin      .g/c3          : Плотность раствора на входе в скважину
Yout     .g/c3          : Плотность раствора на выходе из скважины
Xn1      .h/min         : Ходы насоса 1
Xn2      .h/min         : Ходы насоса 2
Tin      .°С            : Температура раствора на входе
Tout     .°С            : Температура раствора на выходе
Vemk     .m3            : Общий объем раствора в емкостях
C1       .%             : Содержание метана
C2       .%             : Содержание этана
C3       .%             : Содержание пропана
C4       .%             : Содержание бутана
C5       .%             : Содержание пентана
Сuv      .%             : Сумма компонентов углеводородов
Кgazkontr.UE            : Коэффмциент газовой контр.
Lit      .OE            : Литологический код породы
Yn       .g/c3          : Эквивалентная плотность раствора
Cuvp     .c3/d3         : Приведенная сумма компонентов углеводородов в растворе
Wh       .UE            : Газовые коэффициенты
Bh       .UE            : Газовые коэффициенты
Ch       .UE            : Газовые коэффициенты
OPUS3    .UE            : Газовые коэффициенты
OPUS3_1  .UE            : Газовые коэффициенты
OPUS3_2  .UE            : Газовые коэффициенты
BurPor   .UE            : Буровая пористость
TOP      .m             : Кровля пласта
BOTM     .m             : Подошва пласта
DTH      .m             : Толщина пласта
TOPA     .m             : Абсолютные отметки кровли пластов
BTMA     .m             : Абсолютные отметки подошв пластов
RDTH     .m             : Приведенная толщина пластов
COLL     .UE            : Признак коллектора
~Other Information
#-----------------
~Ascii Log Data
# ...
  2348.100 
    13.121     50.108      3.892    192.190     36.007     35.627     25.360 
     2.366     40.173    148.193     19.709    219.100      1.230      1.230 
    64.984     64.512     36.530     34.094    101.254      0.763      0.015 
     0.000      0.000      0.000      0.778      5.558     18.000      1.270 
     0.166      0.097  38137.255      0.100     65.254  12724.475 830319.277 
    34.738 -32768.000 -32768.000 -32768.000 -32768.000 -32768.000 -32768.000 
-32768.000 
  2348.200 
    13.021     49.747      4.253    191.449     36.007     35.627     25.654 
     2.339     40.247    148.267     19.591    219.100      1.230      1.230 
    64.983     64.512     36.530     34.093    101.031      0.763      0.015 
     0.000      0.000      0.000      0.778      5.558     18.000      1.270 
     0.164      0.097  38137.255      0.100     65.254  12724.475 830319.277 
    33.711 -32768.000 -32768.000 -32768.000 -32768.000 -32768.000 -32768.000 
-32768.000 
  2348.300 
    12.922     49.531      4.469    192.582     36.012     35.632     25.500 
     2.353     40.252    148.287     19.882    219.100      1.230      1.230 
    64.972     64.642     36.531     34.093    101.094      0.761      0.015 
     0.000      0.000      0.000      0.776      5.543     18.000      1.270 
     0.165      0.098  38039.215      0.100     65.083  12691.121 825977.768 
    33.050 -32768.000 -32768.000 -32768.000 -32768.000 -32768.000 -32768.000 
-32768.000 
  2348.400 
    12.824     49.316      4.684    193.715     36.017     35.637     25.347 
     2.367     40.257    148.308     20.173    219.100      1.230      1.230 
    64.960     64.771     36.532     34.092    101.158      0.759      0.015 
     0.000      0.000      0.000      0.774      5.529     18.000      1.270 
     0.165      0.098  37941.176      0.100     64.912  12657.767 821636.259 
    32.390 -32768.000 -32768.000 -32768.000 -32768.000 -32768.000 -32768.000 
-32768.000 
  2348.500 
    12.723     49.280      4.720    193.273     36.017     35.636     25.206 
     2.381     40.246    148.297     20.244    219.100      1.230      1.230 
    64.973     64.771     36.531     34.092    101.070      0.759      0.015 
     0.000      0.000      0.000      0.774      5.529     18.000      1.270 
     0.166      0.098  37941.176      0.100     64.912  12657.767 821636.259 
    32.232 -32768.000 -32768.000 -32768.000 -32768.000 -32768.000 -32768.000 
-32768.000 
  2348.600 
    12.622     49.244      4.756    192.830     36.016     35.636     25.066 
     2.394     40.236    148.285     20.316    219.100      1.230      1.230 
    64.986     64.771     36.530     34.092    100.982      0.759      0.015 
     0.000      0.000      0.000      0.774      5.529     18.000      1.270 
     0.167      0.098  37941.176      0.100     64.912  12657.767 821636.259 
    32.074 -32768.000 -32768.000 -32768.000 -32768.000 -32768.000 -32768.000 
-32768.000 
  2348.700 
    12.523     48.941      5.060    193.593     36.016     35.636     25.283 
     2.374     40.186    148.232     20.413    219.100      1.230      1.230 
    64.980     64.771     36.531     34.090    100.945      0.759      0.015 
     0.000      0.000      0.000      0.774      5.529     18.000      1.270 
     0.166      0.098  37941.176      0.100     64.912  12657.767 821636.259 
    31.472 -32768.000 -32768.000 -32768.000 -32768.000 -32768.000 -32768.000 
-32768.000 
  2348.800 
    12.424     48.637      5.364    194.356     36.015     35.635     25.501 
     2.353     40.135    148.180     20.510    219.100      1.230      1.230 
    64.973     64.771     36.531     34.088    100.907      0.759      0.015 
     0.000      0.000      0.000      0.774      5.529     18.000      1.270 
     0.164      0.098  37941.176      0.100     64.912  12657.767 821636.259 
    30.869 -32768.000 -32768.000 -32768.000 -32768.000 -32768.000 -32768.000 
-32768.000 
  2348.900 
    12.322     49.148      4.853    195.124     36.014     35.633     25.358 
     2.366     40.114    148.155     20.206    219.100      1.230      1.230 
    64.990     64.641     36.531     34.089    100.873      0.719      0.015 
     0.000      0.000      0.000      0.733      5.237     18.000      1.270 
     0.156      0.100  35931.372      0.100     63.489  11977.008 761381.960 
    32.064 -32768.000 -32768.000 -32768.000 -32768.000 -32768.000 -32768.000 
-32768.000 
  2349.000 
    12.220     49.659      4.341    195.892     36.012     35.632     25.215 
     2.380     40.094    148.131     19.901    219.100      1.230      1.230 
    65.007     64.512     36.530     34.090    100.839      0.678      0.014 
     0.000      0.000      0.000      0.692      4.944     18.000      1.270 
     0.148      0.102  33921.569      0.100     62.067  11296.249 701127.661 
    33.259 -32768.000 -32768.000 -32768.000 -32768.000 -32768.000 -32768.000 
-32768.000 
  2349.100 
    12.121     50.507      3.493    192.798     36.013     35.633     25.358 
     2.366     39.993    148.032     19.515    219.100      1.230      1.230 
    64.992     64.512     36.530     34.089    100.810      0.678      0.014 
     0.000      0.000      0.000      0.692      4.944     18.000      1.270 
     0.147      0.102  33921.569      0.100     62.067  11296.249 701127.661 
    36.537 -32768.000 -32768.000 -32768.000 -32768.000 -32768.000 -32768.000 
-32768.000 
  2349.200 
    12.022     51.355      2.645    189.703     36.014     35.634     25.501 
     2.353     39.892    147.933     19.128    219.100      1.230      1.230 
    64.976     64.512     36.530     34.088    100.780      0.678      0.014 
     0.000      0.000      0.000      0.692      4.944     18.000      1.270 
     0.147      0.102  33921.569      0.100     62.067  11296.249 701127.661 
    39.815 -32768.000 -32768.000 -32768.000 -32768.000 -32768.000 -32768.000 
-32768.000 
  2349.300 
    11.923     51.489      2.511    189.565     36.017     35.637     25.501 
     2.353     40.029    148.079     19.374    219.100      1.230      1.230 
    64.988     64.642     36.531     34.087    100.743      0.678      0.014 
     0.000      0.000      0.000      0.692      4.944     18.000      1.270 
     0.147      0.102  33921.569      0.100     62.067  11296.249 701127.661 
    40.530 -32768.000 -32768.000 -32768.000 -32768.000 -32768.000 -32768.000 
-32768.000 
  2349.400 
    11.824     51.622      2.378    189.427     36.020     35.640     25.501 
     2.353     40.166    148.226     19.619    219.100      1.230      1.230 
    65.000     64.771     36.532     34.086    100.707      0.678      0.014 
     0.000      0.000      0.000      0.692      4.944     18.000      1.270 
     0.147      0.102  33921.569      0.100     62.067  11296.249 701127.661 
    41.245 -32768.000 -32768.000 -32768.000 -32768.000 -32768.000 -32768.000 
-32768.000 
  2349.500 
    11.723     51.495      2.506    189.272     36.019     35.639     25.209 
     2.381     40.210    148.267     19.588    219.100      1.230      1.230 
    64.992     64.771     36.531     34.086    100.613      0.623      0.012 
     0.000      0.000      0.000      0.635      4.537     18.000      1.270 
     0.136      0.095  24114.250      0.075     66.520   7954.738 514270.378 
    40.388 -32768.000 -32768.000 -32768.000 -32768.000 -32768.000 -32768.000 
-32768.000 
  2349.600 
    11.623     51.367      2.633    189.117     36.018     35.638     24.918 
     2.408     40.254    148.308     19.557    219.100      1.230      1.230 
    64.983     64.771     36.530     34.085    100.519      0.568      0.010 
     0.000      0.000      0.000      0.578      4.130     18.000      1.270 
     0.125      0.088  14306.931      0.050     70.973   4613.226 327413.095 
    39.530 -32768.000 -32768.000 -32768.000 -32768.000 -32768.000 -32768.000 
-32768.000 
  2349.700 
    11.525     51.649      2.351    188.952     36.020     35.640     25.132 
     2.388     40.157    148.216     19.502    219.100      1.230      1.230 
    64.984     64.642     36.531     34.088    100.505      0.568      0.010 
     0.000      0.000      0.000      0.578      4.130     18.000      1.270 
     0.124      0.088  14306.931      0.050     70.973   4613.226 327413.095 
    41.323 -32768.000 -32768.000 -32768.000 -32768.000 -32768.000 -32768.000 
-32768.000 
