~Version Information
#-------------------
VERS.        2.0: CWLS log ASCII Standart - VERSION 2.0
WRAP.        YES: Multiple lines per depth step
~Well Information Block
#----------------------
#MNEM.UNIT  VALUE: DESCRIPTION
#----.---- -------: -------------
STRT.м                  34.4: Начальная глубина
STOP.м                  3192: Конечная глубина
STEP.м                   0.1: Шаг квантования
NULL.              -32768.00: Код отсутствия
COMP.            LUKOIL-KOMI: Название организации
WELL.                    207: Наименование скважины
FLD .       YAREIUSKOE FIELD: Наименование площади
LOC .                    NAO: Расположение скважины
CTRY.                 RUSSIA: Название страны
SRVC.                   PNGG: Наим.орг-ции, проводившей каротаж
DATE.             01.02.2020: Дата регистрации каротажных данных
UWI .                      0: Уникальный идентификатор скважины
~Parameter Information
#---------------------
#MNEM.UNIT         VALUE: DESCRIPTION
#----.----       -------: ---------------
~Curve Information Block
#-----------------------
#MNEM  .UNIT          : CURVE DESCRIPTION
#------.----          : -----------------
DEPT     .m             : Колонка глубины
Hk       .m             : Положение крюка
Wk       .t             : Вес инструмента на крюке
Wd       .t             : Нагрузка на долото
Pin      .atm           : Давление на входе
Qin      .c3/s          : Расход промывочной жидкости на входе
Qout      .c3/s         : Расход промывочной жидкости на выходе
Vmex     .m/h           : Скорость бурения
DMK      .min/m         : Время бурения 1 метра
Np       .ob/min        : Частота оборотов ротора
Nd       .ob/min        : Частота оборотов долота
Mp       .OE            : Крутящий момент на роторе
Dd       .mm            : Диаметр долота
Yin      .g/c3          : Плотность раствора на входе в скважину
Yout     .g/c3          : Плотность раствора на выходе из скважины
Xn1      .h/min         : Ходы насоса 1
Xn2      .h/min         : Ходы насоса 2
Tin      .°С            : Температура раствора на входе
Tout     .°С            : Температура раствора на выходе
Vemk     .m3            : Общий объем раствора в емкостях
C1       .%             : Содержание метана
C2       .%             : Содержание этана
C3       .%             : Содержание пропана
C4       .%             : Содержание бутана
C5       .%             : Содержание пентана
Сuv      .%             : Сумма компонентов углеводородов
Кgazkontr.UE            : Коэффмциент газовой контр.
Lit      .OE            : Литологический код породы
Yn       .g/c3          : Эквивалентная плотность раствора
Cuvp     .c3/d3         : Приведенная сумма компонентов углеводородов в растворе
Wh       .UE            : Газовые коэффициенты
Bh       .UE            : Газовые коэффициенты
Ch       .UE            : Газовые коэффициенты
OPUS3    .UE            : Газовые коэффициенты
OPUS3_1  .UE            : Газовые коэффициенты
OPUS3_2  .UE            : Газовые коэффициенты
BurPor   .UE            : Буровая пористость
TOP      .m             : Кровля пласта
BOTM     .m             : Подошва пласта
DTH      .m             : Толщина пласта
TOPA     .m             : Абсолютные отметки кровли пластов
BTMA     .m             : Абсолютные отметки подошв пластов
RDTH     .m             : Приведенная толщина пластов
COLL     .UE            : Признак коллектора
~Other Information
#-----------------
~Ascii Log Data
# ...
   665.100 
    13.700     45.650      2.870    143.780     54.650     54.270     51.000 
     1.180      0.000    163.950      0.000    295.300      1.150      1.150 
    83.040     82.640     26.785     24.600     80.365      0.023      0.000 
     0.000      0.000      0.000      0.023      0.165     18.000      1.190 
     0.002      0.022   1127.500      0.100      2.931      0.038      0.112 
    50.403 -32768.000 -32768.000 -32768.000 -32768.000 -32768.000 -32768.000 
-32768.000 
   665.200 
    13.600     45.600      2.900    144.110     54.650     54.270     51.000 
     1.180      0.000    163.950      0.000    295.300      1.150      1.150 
    83.060     82.640     26.790     24.600     80.380      0.023      0.000 
     0.000      0.000      0.000      0.023      0.165     18.000      1.190 
     0.002      0.022   1127.500      0.100      2.931      0.038      0.112 
    50.245 -32768.000 -32768.000 -32768.000 -32768.000 -32768.000 -32768.000 
-32768.000 
   665.300 
    13.500     46.100      2.420    143.940     54.655     54.275     51.000 
     1.180      0.000    163.960      0.000    295.300      1.150      1.150 
    83.035     82.640     26.790     24.600     80.430      0.023      0.000 
     0.000      0.000      0.000      0.023      0.165     18.000      1.190 
     0.002      0.022   1127.500      0.100      2.931      0.038      0.112 
    53.314 -32768.000 -32768.000 -32768.000 -32768.000 -32768.000 -32768.000 
-32768.000 
   665.400 
    13.400     46.600      1.940    143.770     54.660     54.280     51.000 
     1.180      0.000    163.970      0.000    295.300      1.150      1.150 
    83.010     82.640     26.790     24.600     80.480      0.023      0.000 
     0.000      0.000      0.000      0.023      0.165     18.000      1.190 
     0.002      0.022   1127.500      0.100      2.931      0.038      0.112 
    56.384 -32768.000 -32768.000 -32768.000 -32768.000 -32768.000 -32768.000 
-32768.000 
   665.500 
    13.300     46.750      1.785    143.655     54.650     54.270     51.000 
     1.180      0.000    163.950      0.000    295.300      1.150      1.150 
    82.985     82.640     26.790     24.600     80.415      0.023      0.000 
     0.000      0.000      0.000      0.023      0.165     18.000      1.190 
     0.002      0.022   1127.500      0.100      2.931      0.038      0.112 
    57.738 -32768.000 -32768.000 -32768.000 -32768.000 -32768.000 -32768.000 
-32768.000 
   665.600 
    13.200     46.900      1.630    143.540     54.640     54.260     51.000 
     1.180      0.000    163.930      0.000    295.300      1.150      1.150 
    82.960     82.640     26.790     24.600     80.350      0.023      0.000 
     0.000      0.000      0.000      0.023      0.165     18.000      1.190 
     0.002      0.022   1127.500      0.100      2.931      0.038      0.112 
    59.092 -32768.000 -32768.000 -32768.000 -32768.000 -32768.000 -32768.000 
-32768.000 
   665.700 
    13.100     46.300      2.220    144.500     54.640     54.260     50.450 
     1.190      0.000    163.930      0.000    295.300      1.150      1.150 
    82.995     82.640     26.790     24.600     80.365      0.023      0.000 
     0.000      0.000      0.000      0.023      0.165     18.000      1.190 
     0.002      0.022   1127.500      0.100      2.931      0.038      0.112 
    54.780 -32768.000 -32768.000 -32768.000 -32768.000 -32768.000 -32768.000 
-32768.000 
   665.800 
    13.000     45.700      2.810    145.460     54.640     54.260     49.900 
     1.200      0.000    163.930      0.000    295.300      1.150      1.150 
    83.030     82.640     26.790     24.600     80.380      0.023      0.000 
     0.000      0.000      0.000      0.023      0.165     18.000      1.190 
     0.002      0.022   1127.500      0.100      2.931      0.038      0.112 
    50.469 -32768.000 -32768.000 -32768.000 -32768.000 -32768.000 -32768.000 
-32768.000 
   665.900 
    12.900     46.200      2.300    144.165     54.645     54.265     50.605 
     1.185      0.000    163.935      0.000    295.300      1.150      1.150 
    83.030     82.640     26.790     24.600     80.335      0.024      0.000 
     0.000      0.000      0.000      0.024      0.172     18.000      1.190 
     0.002      0.021   1176.520      0.100      3.059      0.040      0.122 
    54.118 -32768.000 -32768.000 -32768.000 -32768.000 -32768.000 -32768.000 
-32768.000 
   666.000 
    12.800     46.700      1.790    142.870     54.650     54.270     51.310 
     1.170      0.000    163.940      0.000    295.300      1.150      1.150 
    83.030     82.640     26.790     24.600     80.290      0.025      0.000 
     0.000      0.000      0.000      0.025      0.179     18.000      1.190 
     0.002      0.021   1225.539      0.100      3.186      0.041      0.132 
    57.767 -32768.000 -32768.000 -32768.000 -32768.000 -32768.000 -32768.000 
-32768.000 
   666.100 
    12.700     46.850      1.670    142.745     54.640     54.260     51.155 
     1.175      0.000    163.915      0.000    295.300      1.150      1.150 
    83.010     82.640     26.790     24.600     80.280      0.025      0.000 
     0.000      0.000      0.000      0.025      0.179     18.000      1.190 
     0.002      0.021   1225.539      0.100      3.186      0.041      0.132 
    58.824 -32768.000 -32768.000 -32768.000 -32768.000 -32768.000 -32768.000 
-32768.000 
   666.200 
    12.600     47.000      1.550    142.620     54.630     54.250     51.000 
     1.180      0.000    163.890      0.000    295.300      1.150      1.150 
    82.990     82.640     26.790     24.600     80.270      0.025      0.000 
     0.000      0.000      0.000      0.025      0.179     18.000      1.190 
     0.002      0.021   1225.539      0.100      3.186      0.041      0.132 
    59.880 -32768.000 -32768.000 -32768.000 -32768.000 -32768.000 -32768.000 
-32768.000 
   666.300 
    12.500     47.000      1.530    142.725     54.635     54.255     50.845 
     1.180      0.000    163.910      0.000    295.300      1.150      1.150 
    82.995     82.640     26.790     24.600     80.245      0.025      0.000 
     0.000      0.000      0.000      0.025      0.179     18.000      1.190 
     0.002      0.021   1225.539      0.100      3.186      0.041      0.132 
    60.082 -32768.000 -32768.000 -32768.000 -32768.000 -32768.000 -32768.000 
-32768.000 
   666.400 
    12.400     47.000      1.510    142.830     54.640     54.260     50.690 
     1.180      0.000    163.930      0.000    295.300      1.150      1.150 
    83.000     82.640     26.790     24.600     80.220      0.025      0.000 
     0.000      0.000      0.000      0.025      0.179     18.000      1.190 
     0.002      0.021   1225.539      0.100      3.186      0.041      0.132 
    60.284 -32768.000 -32768.000 -32768.000 -32768.000 -32768.000 -32768.000 
-32768.000 
   666.500 
    12.300     47.000      1.505    142.145     54.640     54.260     50.845 
     1.180      0.005    163.930      0.000    295.300      1.150      1.150 
    83.020     82.640     26.790     24.600     80.225      0.025      0.000 
     0.000      0.000      0.000      0.025      0.179     18.000      1.190 
     0.002      0.021   1225.539      0.100      3.186      0.041      0.132 
    60.336 -32768.000 -32768.000 -32768.000 -32768.000 -32768.000 -32768.000 
-32768.000 
   666.600 
    12.200     47.000      1.500    141.460     54.640     54.260     51.000 
     1.180      0.010    163.930      0.000    295.300      1.150      1.150 
    83.040     82.640     26.790     24.600     80.230      0.025      0.000 
     0.000      0.000      0.000      0.025      0.179     18.000      1.190 
     0.002      0.021   1225.539      0.100      3.186      0.041      0.132 
    60.388 -32768.000 -32768.000 -32768.000 -32768.000 -32768.000 -32768.000 
-32768.000 
   666.700 
    12.050     46.950      1.555    143.525     54.640     54.260     51.165 
     1.175      0.005    163.920      0.000    295.300      1.150      1.150 
    83.045     82.480     26.790     24.600     80.215      0.025      0.000 
     0.000      0.000      0.000      0.025      0.179     18.000      1.190 
     0.002      0.021   1225.539      0.100      3.186      0.041      0.132 
    59.903 -32768.000 -32768.000 -32768.000 -32768.000 -32768.000 -32768.000 
-32768.000 
